[
    {
        "id": "xm_-5QZFzJidiUO--PgOYg",
        "name": "Bites of Xi'an",
        "cuisine": "chinese",
        "address": "60 W 56th St, New York, NY 10019",
        "coordinates": {
            "latitude": 40.76335868622376,
            "longitude": -73.97709537292124
        },
        "review_count": 63,
        "rating": 4.0,
        "zip_code": "10019",
        "phone_number": "(646) 449-0771",
        "insertedAtTimestamp": "22/10/2022 02:42:50.232133"
    },
    {
        "id": "SFleMiroXTeWnXfonRic-w",
        "name": "Fast Wok",
        "cuisine": "chinese",
        "address": "260 Brook Ave, Bronx, NY 10454",
        "coordinates": {
            "latitude": 40.808,
            "longitude": -73.9187199
        },
        "review_count": 8,
        "rating": 4.0,
        "zip_code": "10454",
        "phone_number": "(718) 292-1801",
        "insertedAtTimestamp": "22/10/2022 02:42:50.232193"
    },
    {
        "id": "3oB2_2vpeIyxJt1GvlcZBA",
        "name": "Baodega",
        "cuisine": "chinese",
        "address": "7 W 20th St, New York, NY 10011",
        "coordinates": {
            "latitude": 40.74014,
            "longitude": -73.99178
        },
        "review_count": 266,
        "rating": 4.0,
        "zip_code": "10011",
        "phone_number": "(212) 462-0007",
        "insertedAtTimestamp": "22/10/2022 02:42:50.232209"
    },
    {
        "id": "mUl0wtO7tPkBocuJqZ-7Dw",
        "name": "Dun Huang -  Grand Central",
        "cuisine": "chinese",
        "address": "320 Lexington Ave, New York, NY 10016",
        "coordinates": {
            "latitude": 40.74922,
            "longitude": -73.97785
        },
        "review_count": 278,
        "rating": 4.5,
        "zip_code": "10016",
        "phone_number": "(646) 964-4007",
        "insertedAtTimestamp": "22/10/2022 02:42:50.232222"
    },
    {
        "id": "iM2DKMjyU_R1r8x-3AZGQg",
        "name": "New Cottage",
        "cuisine": "chinese",
        "address": "2199 Broadway, New York, NY 10024",
        "coordinates": {
            "latitude": 40.78326357630784,
            "longitude": -73.98078454782609
        },
        "review_count": 53,
        "rating": 4.0,
        "zip_code": "10024",
        "phone_number": "(212) 595-7450",
        "insertedAtTimestamp": "22/10/2022 02:42:50.232234"
    },
    {
        "id": "TU_BU9HLflYI2xlyqVQdRA",
        "name": "TAO Uptown",
        "cuisine": "chinese",
        "address": "42 E 58th St, New York, NY 10022",
        "coordinates": {
            "latitude": 40.762659285620664,
            "longitude": -73.97144107883544
        },
        "review_count": 2806,
        "rating": 3.5,
        "zip_code": "10022",
        "phone_number": "(212) 888-2288",
        "insertedAtTimestamp": "22/10/2022 02:42:50.232254"
    },
    {
        "id": "l1nX-f46dmOEmYPoiuLSaw",
        "name": "Peking Duck House",
        "cuisine": "chinese",
        "address": "236 E 53rd St, New York, NY 10022",
        "coordinates": {
            "latitude": 40.756912,
            "longitude": -73.968109
        },
        "review_count": 499,
        "rating": 3.5,
        "zip_code": "10022",
        "phone_number": "(212) 759-8260",
        "insertedAtTimestamp": "22/10/2022 02:42:50.232266"
    },
    {
        "id": "s25mujxKWphsyFm0Ji1xYA",
        "name": "Mr Chow",
        "cuisine": "chinese",
        "address": "324 E 57th St, New York, NY 10022",
        "coordinates": {
            "latitude": 40.7588502019644,
            "longitude": -73.9643376320601
        },
        "review_count": 423,
        "rating": 3.0,
        "zip_code": "10022",
        "phone_number": "(212) 751-9030",
        "insertedAtTimestamp": "22/10/2022 02:42:50.232277"
    },
    {
        "id": "2rSmA4IK51QAQj60YGvjnw",
        "name": "New Asian Cuisine",
        "cuisine": "chinese",
        "address": "44-20 48th Ave, Woodside, NY 11377",
        "coordinates": {
            "latitude": 40.7393524,
            "longitude": -73.9210213
        },
        "review_count": 36,
        "rating": 3.5,
        "zip_code": "11377",
        "phone_number": "(718) 784-4989",
        "insertedAtTimestamp": "22/10/2022 02:42:50.232289"
    },
    {
        "id": "3ESDUFulPVoMJdsqPQGm0A",
        "name": "Golden City Chinese Restaurant",
        "cuisine": "chinese",
        "address": "423 9th Ave, New York, NY 10001",
        "coordinates": {
            "latitude": 40.753277148143,
            "longitude": -73.996643608314
        },
        "review_count": 93,
        "rating": 3.5,
        "zip_code": "10001",
        "phone_number": "(212) 736-4004",
        "insertedAtTimestamp": "22/10/2022 02:42:50.232301"
    },
    {
        "id": "scTDvJ2M2jDbb1ntVeIyxA",
        "name": "Hao Noodle - West Village",
        "cuisine": "chinese",
        "address": "401 6th Ave, New York, NY 10014",
        "coordinates": {
            "latitude": 40.7334863190479,
            "longitude": -73.9998929006093
        },
        "review_count": 822,
        "rating": 4.0,
        "zip_code": "10014",
        "phone_number": "(212) 633-8900",
        "insertedAtTimestamp": "22/10/2022 02:42:50.232313"
    },
    {
        "id": "SBJHGtqJyfaU47NPjGAU6A",
        "name": "China Jade",
        "cuisine": "chinese",
        "address": "1643 2nd Ave, New York, NY 10028",
        "coordinates": {
            "latitude": 40.777392,
            "longitude": -73.952329
        },
        "review_count": 205,
        "rating": 3.5,
        "zip_code": "10028",
        "phone_number": "(212) 717-6688",
        "insertedAtTimestamp": "22/10/2022 02:42:50.232325"
    },
    {
        "id": "Y92VtOkTZ6BirkJbUKCMOw",
        "name": "Rong Cheng House",
        "cuisine": "chinese",
        "address": "242 W 56th St, New York, NY 10019",
        "coordinates": {
            "latitude": 40.76572,
            "longitude": -73.98286
        },
        "review_count": 117,
        "rating": 4.0,
        "zip_code": "10019",
        "phone_number": "(212) 265-2226",
        "insertedAtTimestamp": "22/10/2022 02:42:50.232336"
    },
    {
        "id": "rBUTVjRs5CcEMe3dfVRZJQ",
        "name": "Ho Foods",
        "cuisine": "chinese",
        "address": "110 E 7th St, New York, NY 10009",
        "coordinates": {
            "latitude": 40.72634,
            "longitude": -73.98478
        },
        "review_count": 385,
        "rating": 4.0,
        "zip_code": "10009",
        "phone_number": "(347) 788-0682",
        "insertedAtTimestamp": "22/10/2022 02:42:50.232351"
    },
    {
        "id": "l44CFBTejwL0ElKmkH7xQQ",
        "name": "Decoy",
        "cuisine": "chinese",
        "address": "529 Hudson St, New York, NY 10014",
        "coordinates": {
            "latitude": 40.734207418277244,
            "longitude": -74.006519
        },
        "review_count": 451,
        "rating": 4.0,
        "zip_code": "10014",
        "phone_number": "(212) 691-9700",
        "insertedAtTimestamp": "22/10/2022 02:42:50.232363"
    },
    {
        "id": "wzmeaMTm5cZ1JCjep7iQeA",
        "name": "ZLS BBQ",
        "cuisine": "chinese",
        "address": "219 E 23rd St, New York, NY 10010",
        "coordinates": {
            "latitude": 40.73852,
            "longitude": -73.98201
        },
        "review_count": 30,
        "rating": 4.5,
        "zip_code": "10010",
        "phone_number": "(646) 781-9595",
        "insertedAtTimestamp": "22/10/2022 02:42:50.232376"
    },
    {
        "id": "Vzx-7-jSEBz2g8NuGVhHvQ",
        "name": "Philippe By Philippe Chow",
        "cuisine": "chinese",
        "address": "33 E 60th St, New York, NY 10065",
        "coordinates": {
            "latitude": 40.76409,
            "longitude": -73.97039
        },
        "review_count": 860,
        "rating": 3.5,
        "zip_code": "10065",
        "phone_number": "(212) 644-8885",
        "insertedAtTimestamp": "22/10/2022 02:42:50.232389"
    },
    {
        "id": "M-odQWSEfsR2mVEw7nKG-g",
        "name": "Nyonya",
        "cuisine": "chinese",
        "address": "199 Grand St, New York, NY 10013",
        "coordinates": {
            "latitude": 40.719116974367,
            "longitude": -73.9968322948353
        },
        "review_count": 2277,
        "rating": 4.0,
        "zip_code": "10013",
        "phone_number": "(212) 334-3669",
        "insertedAtTimestamp": "22/10/2022 02:42:50.232401"
    },
    {
        "id": "Qwd4Tv-CqgO2Yl9zZgkKOQ",
        "name": "Shun Lee Palace",
        "cuisine": "chinese",
        "address": "155 E 55th St, New York, NY 10022",
        "coordinates": {
            "latitude": 40.75945,
            "longitude": -73.96907
        },
        "review_count": 321,
        "rating": 3.0,
        "zip_code": "10022",
        "phone_number": "(212) 371-8844",
        "insertedAtTimestamp": "22/10/2022 02:42:50.232412"
    },
    {
        "id": "fbxOVzLvmIB13_5adb1hfQ",
        "name": "Our New Place",
        "cuisine": "chinese",
        "address": "242 E 79th St, New York, NY 10075",
        "coordinates": {
            "latitude": 40.77347,
            "longitude": -73.95576
        },
        "review_count": 15,
        "rating": 4.5,
        "zip_code": "10075",
        "phone_number": "(212) 288-4888",
        "insertedAtTimestamp": "22/10/2022 02:42:50.232424"
    },
    {
        "id": "E_Rxnmim6J2ECFtU0QGlsQ",
        "name": "Uncle Lou",
        "cuisine": "chinese",
        "address": "73 Mulberry St, New York, NY 10013",
        "coordinates": {
            "latitude": 40.71623,
            "longitude": -73.99925
        },
        "review_count": 225,
        "rating": 4.0,
        "zip_code": "10013",
        "phone_number": "(212) 966-5538",
        "insertedAtTimestamp": "22/10/2022 02:42:50.232436"
    },
    {
        "id": "kBZggrnSP1kcUMnsnfkTaQ",
        "name": "Nan Xiang Xiao Long Bao - Flushing",
        "cuisine": "chinese",
        "address": "39-16 Prince St, Ste 104, Flushing, NY 11354",
        "coordinates": {
            "latitude": 40.75924,
            "longitude": -73.8326
        },
        "review_count": 4257,
        "rating": 4.0,
        "zip_code": "11354",
        "phone_number": "(718) 321-3838",
        "insertedAtTimestamp": "22/10/2022 02:42:50.232448"
    },
    {
        "id": "rGUv1nNmsvy2jOlZtbaOpw",
        "name": "Dimsum Garden",
        "cuisine": "chinese",
        "address": "338 Lexington Ave, New York, NY 10016",
        "coordinates": {
            "latitude": 40.74979,
            "longitude": -73.97743
        },
        "review_count": 46,
        "rating": 4.5,
        "zip_code": "10016",
        "phone_number": "(646) 559-2388",
        "insertedAtTimestamp": "22/10/2022 02:42:50.232460"
    },
    {
        "id": "lQ8Fzgji9qmgRXkFcvAsVQ",
        "name": "Chong Qing Xiao Mian",
        "cuisine": "chinese",
        "address": "796 9th Ave, New York, NY 10019",
        "coordinates": {
            "latitude": 40.76513,
            "longitude": -73.98753
        },
        "review_count": 335,
        "rating": 4.0,
        "zip_code": "10019",
        "phone_number": "(212) 582-8866",
        "insertedAtTimestamp": "22/10/2022 02:42:50.232472"
    },
    {
        "id": "6YehBdKHcLDsvaewhcEjFQ",
        "name": "Hey Yuet",
        "cuisine": "chinese",
        "address": "251 W 26th St, New York, NY 10001",
        "coordinates": {
            "latitude": 40.74703,
            "longitude": -73.99645
        },
        "review_count": 150,
        "rating": 4.5,
        "zip_code": "10001",
        "phone_number": "(646) 998-4196",
        "insertedAtTimestamp": "22/10/2022 02:42:50.232483"
    },
    {
        "id": "0vg2Z-HPwkyVVX613j2ysg",
        "name": "Peng's Noodle Folk",
        "cuisine": "chinese",
        "address": "1659 1st Ave, New York, NY 10028",
        "coordinates": {
            "latitude": 40.77726,
            "longitude": -73.94932
        },
        "review_count": 523,
        "rating": 4.5,
        "zip_code": "10028",
        "phone_number": "(929) 391-3950",
        "insertedAtTimestamp": "22/10/2022 02:42:50.232495"
    },
    {
        "id": "k0fnJRSV8tzM2bzkvFdlGg",
        "name": "Bonnie's",
        "cuisine": "chinese",
        "address": "398 Manhattan Ave, Brooklyn, NY 11211",
        "coordinates": {
            "latitude": 40.71783,
            "longitude": -73.94651
        },
        "review_count": 77,
        "rating": 3.5,
        "zip_code": "11211",
        "phone_number": "(914) 875-3709",
        "insertedAtTimestamp": "22/10/2022 02:42:50.232515"
    },
    {
        "id": "w3wKbjuNCZnYoPOr-FCk5w",
        "name": "New Moon",
        "cuisine": "chinese",
        "address": "547 2nd Ave, New York, NY 10016",
        "coordinates": {
            "latitude": 40.742569,
            "longitude": -73.977856
        },
        "review_count": 198,
        "rating": 3.5,
        "zip_code": "10016",
        "phone_number": "(212) 779-2828",
        "insertedAtTimestamp": "22/10/2022 02:42:50.232527"
    },
    {
        "id": "keZkNTROSC-wFJsXHJdMAA",
        "name": "Bings & Noodles",
        "cuisine": "chinese",
        "address": "240 Sullivan St, New York, NY 10012",
        "coordinates": {
            "latitude": 40.730003496197085,
            "longitude": -73.9996072
        },
        "review_count": 12,
        "rating": 4.5,
        "zip_code": "10012",
        "phone_number": "None",
        "insertedAtTimestamp": "22/10/2022 02:42:50.232541"
    },
    {
        "id": "Dqp5Itsj9dN0Ewz8Gm853g",
        "name": "Philippe Downtown",
        "cuisine": "chinese",
        "address": "355 W 16th St, New York, NY 10011",
        "coordinates": {
            "latitude": 40.74213,
            "longitude": -74.0038
        },
        "review_count": 148,
        "rating": 4.0,
        "zip_code": "10011",
        "phone_number": "(212) 885-9400",
        "insertedAtTimestamp": "22/10/2022 02:42:50.232553"
    },
    {
        "id": "FcQA5tV8wlz6jg_UK_s7Hw",
        "name": "Simply Noodles",
        "cuisine": "chinese",
        "address": "267  Amsterdam Ave, New York, NY 10023",
        "coordinates": {
            "latitude": 40.7788403,
            "longitude": -73.98118199999999
        },
        "review_count": 49,
        "rating": 5.0,
        "zip_code": "10023",
        "phone_number": "(212) 721-1000",
        "insertedAtTimestamp": "22/10/2022 02:42:50.232564"
    },
    {
        "id": "croh2zWlbPyCQTNS11klcg",
        "name": "China River \u5ddd\u805a\u9662",
        "cuisine": "chinese",
        "address": "258 W 44th St, New York, NY 10036",
        "coordinates": {
            "latitude": 40.75821,
            "longitude": -73.98833
        },
        "review_count": 248,
        "rating": 4.0,
        "zip_code": "10036",
        "phone_number": "(646) 767-0854",
        "insertedAtTimestamp": "22/10/2022 02:42:50.232576"
    },
    {
        "id": "wurhcLKXD4YJ5XfTxpbE5Q",
        "name": "Grand Sichuan",
        "cuisine": "chinese",
        "address": "229 9th Ave, New York, NY 10001",
        "coordinates": {
            "latitude": 40.747413,
            "longitude": -74.001052
        },
        "review_count": 479,
        "rating": 3.5,
        "zip_code": "10001",
        "phone_number": "(212) 620-5200",
        "insertedAtTimestamp": "22/10/2022 02:42:50.232588"
    },
    {
        "id": "8YWLuLUKj0t_0_Xv06UUtw",
        "name": "Ye's Apothecary",
        "cuisine": "chinese",
        "address": "119 Orchard St, New York, NY 10002",
        "coordinates": {
            "latitude": 40.71945,
            "longitude": -73.9898
        },
        "review_count": 95,
        "rating": 4.5,
        "zip_code": "10002",
        "phone_number": "None",
        "insertedAtTimestamp": "22/10/2022 02:42:50.232600"
    },
    {
        "id": "Q1TpfbuPwKPFrNFyu-u2_g",
        "name": "Han Dynasty",
        "cuisine": "chinese",
        "address": "1 Dekalb Ave, Brooklyn, NY 11201",
        "coordinates": {
            "latitude": 40.6911319610036,
            "longitude": -73.9825977757573
        },
        "review_count": 370,
        "rating": 3.5,
        "zip_code": "11201",
        "phone_number": "(718) 858-0588",
        "insertedAtTimestamp": "22/10/2022 02:42:50.232611"
    },
    {
        "id": "v2dtG37r1ThqtfEfiFsAUg",
        "name": "Shanghai Mong",
        "cuisine": "chinese",
        "address": "30 W 32nd St, New York, NY 10001",
        "coordinates": {
            "latitude": 40.7476119995117,
            "longitude": -73.9871597290039
        },
        "review_count": 602,
        "rating": 3.0,
        "zip_code": "10001",
        "phone_number": "(212) 629-6450",
        "insertedAtTimestamp": "22/10/2022 02:42:50.232622"
    },
    {
        "id": "Puyzn1gagH9TsJz7EBJs3g",
        "name": "Baji Baji",
        "cuisine": "chinese",
        "address": "145 1st Ave, New York, NY 10003",
        "coordinates": {
            "latitude": 40.72821421354205,
            "longitude": -73.98516918819301
        },
        "review_count": 51,
        "rating": 4.5,
        "zip_code": "10003",
        "phone_number": "(212) 777-3888",
        "insertedAtTimestamp": "22/10/2022 02:42:50.232634"
    },
    {
        "id": "6kCo3xb87Sc3Aa5ZSWzNnw",
        "name": "Kung Fu Kitchen",
        "cuisine": "chinese",
        "address": "610 8th Ave, New York, NY 10018",
        "coordinates": {
            "latitude": 40.755631112182144,
            "longitude": -73.99066
        },
        "review_count": 482,
        "rating": 3.5,
        "zip_code": "10018",
        "phone_number": "(212) 951-1935",
        "insertedAtTimestamp": "22/10/2022 02:42:50.232646"
    },
    {
        "id": "z5f--L8_vB_WvSaRca7LQQ",
        "name": "Mala House",
        "cuisine": "chinese",
        "address": "22 E 21st St, New York, NY 10017",
        "coordinates": {
            "latitude": 40.73945005575927,
            "longitude": -73.98913809999999
        },
        "review_count": 35,
        "rating": 4.5,
        "zip_code": "10017",
        "phone_number": "(929) 888-4929",
        "insertedAtTimestamp": "22/10/2022 02:42:50.232679"
    },
    {
        "id": "aJKpUrLLNX3dy7NJCriqcQ",
        "name": "ER Hot Pot",
        "cuisine": "chinese",
        "address": "11 W 36th St, New York, NY 10018",
        "coordinates": {
            "latitude": 40.75019,
            "longitude": -73.98448
        },
        "review_count": 42,
        "rating": 4.0,
        "zip_code": "10018",
        "phone_number": "(646) 669-7777",
        "insertedAtTimestamp": "22/10/2022 02:42:50.232694"
    },
    {
        "id": "_lx7nuvXU7LhDRL3a9TMAw",
        "name": "DD Soup Dumpling",
        "cuisine": "chinese",
        "address": "321 W 42nd St, 1A, New York, NY 10036",
        "coordinates": {
            "latitude": 40.75792,
            "longitude": -73.99067
        },
        "review_count": 45,
        "rating": 4.5,
        "zip_code": "10036",
        "phone_number": "(212) 757-1820",
        "insertedAtTimestamp": "22/10/2022 02:42:50.232706"
    },
    {
        "id": "dDXtga5Kgo5B1twdezcZJA",
        "name": "Auntie Guan's Kitchen ",
        "cuisine": "chinese",
        "address": "108 W 14th St, New York, NY 10011",
        "coordinates": {
            "latitude": 40.73748,
            "longitude": -73.99752
        },
        "review_count": 375,
        "rating": 3.5,
        "zip_code": "10011",
        "phone_number": "(212) 206-8388",
        "insertedAtTimestamp": "22/10/2022 02:42:50.232717"
    },
    {
        "id": "vQX7y4Yoknpso033IDATqA",
        "name": "Wenwen",
        "cuisine": "chinese",
        "address": "1025 Manhattan Ave, Brooklyn, NY 11222",
        "coordinates": {
            "latitude": 40.73398,
            "longitude": -73.95504
        },
        "review_count": 90,
        "rating": 4.0,
        "zip_code": "11222",
        "phone_number": "None",
        "insertedAtTimestamp": "22/10/2022 02:42:50.232728"
    },
    {
        "id": "U74_3F7r3tMhd6dmTmDBxQ",
        "name": "Macao Trading Company",
        "cuisine": "chinese",
        "address": "311 Church St, New York, NY 10013",
        "coordinates": {
            "latitude": 40.719623,
            "longitude": -74.003904
        },
        "review_count": 819,
        "rating": 4.0,
        "zip_code": "10013",
        "phone_number": "(212) 431-8642",
        "insertedAtTimestamp": "22/10/2022 02:42:50.232739"
    },
    {
        "id": "TzhAlljC_843JO7UDDUIaQ",
        "name": "The Tang - Upper West Side",
        "cuisine": "chinese",
        "address": "920 Amsterdam Ave, New York, NY 10025",
        "coordinates": {
            "latitude": 40.80006,
            "longitude": -73.96639
        },
        "review_count": 271,
        "rating": 4.5,
        "zip_code": "10025",
        "phone_number": "(646) 596-7970",
        "insertedAtTimestamp": "22/10/2022 02:42:50.232751"
    },
    {
        "id": "3NYQQckItp9l7GDzALw79w",
        "name": "Lin's Gourmet",
        "cuisine": "chinese",
        "address": "1097 2nd Ave, New York, NY 10022",
        "coordinates": {
            "latitude": 40.759891,
            "longitude": -73.965187
        },
        "review_count": 75,
        "rating": 3.5,
        "zip_code": "10022",
        "phone_number": "(212) 752-5586",
        "insertedAtTimestamp": "22/10/2022 02:42:50.232763"
    },
    {
        "id": "Kqb7MjTPNkjPMoFRd-rWpw",
        "name": "M\u00e1L\u00e0 Project",
        "cuisine": "chinese",
        "address": "122 1st Ave, New York, NY 10009",
        "coordinates": {
            "latitude": 40.72713,
            "longitude": -73.98542
        },
        "review_count": 832,
        "rating": 4.0,
        "zip_code": "10009",
        "phone_number": "(212) 602-1005",
        "insertedAtTimestamp": "22/10/2022 02:42:50.232775"
    },
    {
        "id": "3gqKLANaXNsHZnPDjKrcTg",
        "name": "Win Son",
        "cuisine": "chinese",
        "address": "159 Graham Ave, Brooklyn, NY 11206",
        "coordinates": {
            "latitude": 40.70747,
            "longitude": -73.94339
        },
        "review_count": 637,
        "rating": 4.0,
        "zip_code": "11206",
        "phone_number": "(347) 457-6010",
        "insertedAtTimestamp": "22/10/2022 02:42:50.232787"
    },
    {
        "id": "X4hEgOBOLTYFhlWO-gAFxQ",
        "name": "Tipsy Shanghai",
        "cuisine": "chinese",
        "address": "228 Thompson St, New York, NY 10012",
        "coordinates": {
            "latitude": 40.72929,
            "longitude": -73.99882
        },
        "review_count": 346,
        "rating": 4.0,
        "zip_code": "10012",
        "phone_number": "(212) 763-0877",
        "insertedAtTimestamp": "22/10/2022 02:42:50.232799"
    },
    {
        "id": "LVkBYW-FNaZ2h-0zB8-vzA",
        "name": "Jiang's Kitchen",
        "cuisine": "chinese",
        "address": "65 St Marks Pl, New York, NY 10003",
        "coordinates": {
            "latitude": 40.72808,
            "longitude": -73.98615
        },
        "review_count": 33,
        "rating": 4.5,
        "zip_code": "10003",
        "phone_number": "(646) 398-7722",
        "insertedAtTimestamp": "22/10/2022 02:42:50.232811"
    },
    {
        "id": "c_YQu6gmnG_v7nXoTQHzHA",
        "name": "Xiao Chuan Dian",
        "cuisine": "chinese",
        "address": "8 Henry Ave, Palisades Park, NJ 07650",
        "coordinates": {
            "latitude": 40.8462581,
            "longitude": -73.9995048
        },
        "review_count": 48,
        "rating": 4.0,
        "zip_code": "07650",
        "phone_number": "(201) 429-2226",
        "insertedAtTimestamp": "22/10/2022 02:42:50.232825"
    },
    {
        "id": "R26zweQ8-xoZS7iHkXQOvw",
        "name": "Shanghai 21",
        "cuisine": "chinese",
        "address": "21 Mott St, New York, NY 10013",
        "coordinates": {
            "latitude": 40.71441,
            "longitude": -73.99902
        },
        "review_count": 1894,
        "rating": 4.0,
        "zip_code": "10013",
        "phone_number": "(212) 766-6311",
        "insertedAtTimestamp": "22/10/2022 02:42:50.232841"
    },
    {
        "id": "WRRs3smfm6rHP5k4Slzr3w",
        "name": "Hop Won Restaurant",
        "cuisine": "chinese",
        "address": "139 E 45th St, New York, NY 10017",
        "coordinates": {
            "latitude": 40.75322,
            "longitude": -73.97399
        },
        "review_count": 155,
        "rating": 3.0,
        "zip_code": "10017",
        "phone_number": "(212) 867-4996",
        "insertedAtTimestamp": "22/10/2022 02:42:50.232855"
    },
    {
        "id": "7ZQSMqWzvXMSetXnii2fBg",
        "name": "Excellent Dumpling House",
        "cuisine": "chinese",
        "address": "165 W 23rd St, New York, NY 10011",
        "coordinates": {
            "latitude": 40.7440494396358,
            "longitude": -73.995028194335
        },
        "review_count": 735,
        "rating": 4.0,
        "zip_code": "10011",
        "phone_number": "(212) 989-8885",
        "insertedAtTimestamp": "22/10/2022 02:42:50.232867"
    },
    {
        "id": "UBY796Pa8HAuqC2uRR0WNg",
        "name": "Dim Sum Sam",
        "cuisine": "chinese",
        "address": "240 W 40th St, New York, NY 10018",
        "coordinates": {
            "latitude": 40.755247,
            "longitude": -73.989578
        },
        "review_count": 26,
        "rating": 4.5,
        "zip_code": "10018",
        "phone_number": "(917) 472-7688",
        "insertedAtTimestamp": "22/10/2022 02:42:50.232879"
    },
    {
        "id": "ptWTdgSzSpH-0LD24QIH-w",
        "name": "Wild Ink",
        "cuisine": "chinese",
        "address": "500 W 33rd St, Fl 5, New York, NY 10001",
        "coordinates": {
            "latitude": 40.753754,
            "longitude": -74.001388
        },
        "review_count": 254,
        "rating": 4.0,
        "zip_code": "10001",
        "phone_number": "(646) 974-7305",
        "insertedAtTimestamp": "22/10/2022 02:42:50.232891"
    },
    {
        "id": "jwKPVep2qZYBUA6SLLQPvg",
        "name": "Legend 72",
        "cuisine": "chinese",
        "address": "127 W 72nd St, New York, NY 10023",
        "coordinates": {
            "latitude": 40.77796,
            "longitude": -73.9796901
        },
        "review_count": 271,
        "rating": 3.5,
        "zip_code": "10023",
        "phone_number": "(917) 441-4790",
        "insertedAtTimestamp": "22/10/2022 02:42:50.232903"
    },
    {
        "id": "IkOW8jcaFYOll4albHitLw",
        "name": "Lotus + Cleaver",
        "cuisine": "chinese",
        "address": "28-17 Jackson Ave, Long Island City, NY 11101",
        "coordinates": {
            "latitude": 40.7486281,
            "longitude": -73.9385852
        },
        "review_count": 62,
        "rating": 4.5,
        "zip_code": "11101",
        "phone_number": "(929) 510-7040",
        "insertedAtTimestamp": "22/10/2022 02:42:50.232915"
    },
    {
        "id": "1jAB_uaI8-P_wSqOo2S3KQ",
        "name": "Mazu Szechuan",
        "cuisine": "chinese",
        "address": "495 3rd Ave, New York, NY 10016",
        "coordinates": {
            "latitude": 40.745234,
            "longitude": -73.97812
        },
        "review_count": 103,
        "rating": 4.5,
        "zip_code": "10016",
        "phone_number": "(646) 609-3388",
        "insertedAtTimestamp": "22/10/2022 02:42:50.232928"
    },
    {
        "id": "f_vDVYSk-VUnlGTvgtBwkQ",
        "name": "Noodlecraft",
        "cuisine": "chinese",
        "address": "10-39 47th Rd, Long Island City, NY 11101",
        "coordinates": {
            "latitude": 40.74471,
            "longitude": -73.95182
        },
        "review_count": 120,
        "rating": 4.5,
        "zip_code": "11101",
        "phone_number": "(718) 392-9555",
        "insertedAtTimestamp": "22/10/2022 02:42:50.232941"
    },
    {
        "id": "8ZBbl3VN-cu6PFOL0D7-8A",
        "name": "Hunan Village",
        "cuisine": "chinese",
        "address": "339 Lexington Ave New York Ny, New York, NY 10016",
        "coordinates": {
            "latitude": 40.749688,
            "longitude": -73.977171
        },
        "review_count": 28,
        "rating": 4.0,
        "zip_code": "10016",
        "phone_number": "(646) 692-4888",
        "insertedAtTimestamp": "22/10/2022 02:42:50.232955"
    },
    {
        "id": "hNFe8WhCibrqT4sFcZmAgw",
        "name": "Kong Sihk Tong \u6e2f\u98df\u5802",
        "cuisine": "chinese",
        "address": "65 Bayard St, New York, NY 10013",
        "coordinates": {
            "latitude": 40.715433714742154,
            "longitude": -73.9981186386701
        },
        "review_count": 581,
        "rating": 4.0,
        "zip_code": "10013",
        "phone_number": "(646) 850-6140",
        "insertedAtTimestamp": "22/10/2022 02:42:50.232968"
    },
    {
        "id": "i7cKPMXreR4XfTjdpqZ_5A",
        "name": "Emperor Dumpling",
        "cuisine": "chinese",
        "address": "818 6th Ave, New York, NY 10001",
        "coordinates": {
            "latitude": 40.74613,
            "longitude": -73.99015
        },
        "review_count": 21,
        "rating": 5.0,
        "zip_code": "10001",
        "phone_number": "(646) 422-7128",
        "insertedAtTimestamp": "22/10/2022 02:42:50.232980"
    },
    {
        "id": "B7bxdtvLYR7Nmex4AIFd4w",
        "name": "RedFarm",
        "cuisine": "chinese",
        "address": "2170 Broadway, New York, NY 10024",
        "coordinates": {
            "latitude": 40.782051,
            "longitude": -73.980415
        },
        "review_count": 703,
        "rating": 3.5,
        "zip_code": "10024",
        "phone_number": "(212) 724-9700",
        "insertedAtTimestamp": "22/10/2022 02:42:50.232992"
    },
    {
        "id": "OvdCm3j_5HzItolfvwrEUA",
        "name": "Lilli & Loo",
        "cuisine": "chinese",
        "address": "1026 3rd Ave, New York, NY 10065",
        "coordinates": {
            "latitude": 40.762738760552196,
            "longitude": -73.96594827668659
        },
        "review_count": 446,
        "rating": 3.5,
        "zip_code": "10065",
        "phone_number": "(212) 421-7800",
        "insertedAtTimestamp": "22/10/2022 02:42:50.233004"
    },
    {
        "id": "olRNNJCJ2TJvPRmjBiOcGA",
        "name": "Silky Kitchen",
        "cuisine": "chinese",
        "address": "137 E 13th St, New York, NY 10003",
        "coordinates": {
            "latitude": 40.73297,
            "longitude": -73.98829
        },
        "review_count": 276,
        "rating": 4.5,
        "zip_code": "10003",
        "phone_number": "(646) 850-0635",
        "insertedAtTimestamp": "22/10/2022 02:42:50.233018"
    },
    {
        "id": "8ig0yf0003DAp4YOGTlbVg",
        "name": "Spicy Village",
        "cuisine": "chinese",
        "address": "68 Forsyth St, Ste B, New York, NY 10002",
        "coordinates": {
            "latitude": 40.71695,
            "longitude": -73.99327
        },
        "review_count": 774,
        "rating": 4.0,
        "zip_code": "10002",
        "phone_number": "(212) 625-8299",
        "insertedAtTimestamp": "22/10/2022 02:42:50.233041"
    },
    {
        "id": "R7EGjHWw0tNheY6-ahH8fQ",
        "name": "Tuome",
        "cuisine": "chinese",
        "address": "536 E 5th St, New York, NY 10009",
        "coordinates": {
            "latitude": 40.72412482724,
            "longitude": -73.9828906263924
        },
        "review_count": 625,
        "rating": 4.5,
        "zip_code": "10009",
        "phone_number": "(646) 833-7811",
        "insertedAtTimestamp": "22/10/2022 02:42:50.233053"
    },
    {
        "id": "bnDfFdiCcPzhuNWUJORvLQ",
        "name": "Noodle Village",
        "cuisine": "chinese",
        "address": "13 Mott St, New York, NY 10013",
        "coordinates": {
            "latitude": 40.714167,
            "longitude": -73.998803
        },
        "review_count": 1305,
        "rating": 4.0,
        "zip_code": "10013",
        "phone_number": "(212) 233-0788",
        "insertedAtTimestamp": "22/10/2022 02:42:50.233065"
    },
    {
        "id": "Bwj7nzWphGV6FaZ_ygTSOg",
        "name": "Happy Hot Hunan",
        "cuisine": "chinese",
        "address": "969 Amsterdam Ave, New York, NY 10025",
        "coordinates": {
            "latitude": 40.80133,
            "longitude": -73.96466
        },
        "review_count": 180,
        "rating": 3.5,
        "zip_code": "10025",
        "phone_number": "(212) 531-1788",
        "insertedAtTimestamp": "22/10/2022 02:42:50.233078"
    },
    {
        "id": "53lgp8fFEuK3Yo7yeXc89A",
        "name": "Tim Ho Wan - Hell's Kitchen",
        "cuisine": "chinese",
        "address": "610 9th Ave, New York, NY 10036",
        "coordinates": {
            "latitude": 40.75935,
            "longitude": -73.99175
        },
        "review_count": 521,
        "rating": 4.0,
        "zip_code": "10036",
        "phone_number": "(212) 228-2802",
        "insertedAtTimestamp": "22/10/2022 02:42:50.233089"
    },
    {
        "id": "UNyGz06_7RendbswIyNYtA",
        "name": "Shu Han Ju",
        "cuisine": "chinese",
        "address": "465 6th Ave, New York, NY 10011",
        "coordinates": {
            "latitude": 40.73558,
            "longitude": -73.99843
        },
        "review_count": 193,
        "rating": 3.5,
        "zip_code": "10011",
        "phone_number": "(212) 428-8800",
        "insertedAtTimestamp": "22/10/2022 02:42:50.233102"
    },
    {
        "id": "KjN7kiCP4kZbt1dj8w3A3g",
        "name": "Steam - Shanghai Asian Fusion",
        "cuisine": "chinese",
        "address": "470 6th Ave, New York, NY 10011",
        "coordinates": {
            "latitude": 40.735570389859696,
            "longitude": -73.997784032187
        },
        "review_count": 35,
        "rating": 4.5,
        "zip_code": "10011",
        "phone_number": "(917) 262-0565",
        "insertedAtTimestamp": "22/10/2022 02:42:50.233115"
    },
    {
        "id": "VbFYau70iG_s6UNFwYtGVQ",
        "name": "Xu's Public House",
        "cuisine": "chinese",
        "address": "15 Union Square W, New York, NY 10003",
        "coordinates": {
            "latitude": 40.73589,
            "longitude": -73.9917
        },
        "review_count": 118,
        "rating": 4.0,
        "zip_code": "10003",
        "phone_number": "(212) 901-9971",
        "insertedAtTimestamp": "22/10/2022 02:42:50.233133"
    },
    {
        "id": "2J3--ZI6CcoYLWSYYVdt7Q",
        "name": "Milu",
        "cuisine": "chinese",
        "address": "333 Park Ave S, New York, NY 10010",
        "coordinates": {
            "latitude": 40.741084,
            "longitude": -73.985324
        },
        "review_count": 178,
        "rating": 4.5,
        "zip_code": "10010",
        "phone_number": "(212) 377-6403",
        "insertedAtTimestamp": "22/10/2022 02:42:50.233145"
    },
    {
        "id": "DpfE0gPBXj-aj2pnEh4E2Q",
        "name": "Wei Williamsburg",
        "cuisine": "chinese",
        "address": "145 Borinquen Pl, Brooklyn, NY 11211",
        "coordinates": {
            "latitude": 40.7107868,
            "longitude": -73.9542168
        },
        "review_count": 208,
        "rating": 4.0,
        "zip_code": "11211",
        "phone_number": "(718) 360-1908",
        "insertedAtTimestamp": "22/10/2022 02:42:50.233157"
    },
    {
        "id": "2tR7d61tBGNlGaJRYvrN0Q",
        "name": "Dumplings & Things",
        "cuisine": "chinese",
        "address": "45-26 46th St, Sunnyside, NY 11104",
        "coordinates": {
            "latitude": 40.7425888323281,
            "longitude": -73.9189697784327
        },
        "review_count": 192,
        "rating": 3.5,
        "zip_code": "11104",
        "phone_number": "(718) 392-2337",
        "insertedAtTimestamp": "22/10/2022 02:42:50.233168"
    },
    {
        "id": "HR_a2QSA_KJZIakufAJUmg",
        "name": "Szechuan Gourmet",
        "cuisine": "chinese",
        "address": "21 W 39th St, New York, NY 10018",
        "coordinates": {
            "latitude": 40.75226532620614,
            "longitude": -73.98361050137848
        },
        "review_count": 39,
        "rating": 4.5,
        "zip_code": "10018",
        "phone_number": "(212) 921-0233",
        "insertedAtTimestamp": "22/10/2022 02:42:50.233183"
    },
    {
        "id": "wobICp6lQP7Y6dfnJ_4Ujw",
        "name": "Shun Lee West & Cafe",
        "cuisine": "chinese",
        "address": "43 W 65th St, New York, NY 10023",
        "coordinates": {
            "latitude": 40.77269583,
            "longitude": -73.98150783
        },
        "review_count": 532,
        "rating": 2.5,
        "zip_code": "10023",
        "phone_number": "(212) 595-8895",
        "insertedAtTimestamp": "22/10/2022 02:42:50.233197"
    },
    {
        "id": "pBNMZp_tKCAfRNx7-ybcHQ",
        "name": "Calle Dao - Chelsea",
        "cuisine": "chinese",
        "address": "461 W 23rd St, New York, NY 10011",
        "coordinates": {
            "latitude": 40.74769301,
            "longitude": -74.00350737
        },
        "review_count": 955,
        "rating": 4.5,
        "zip_code": "10011",
        "phone_number": "(212) 414-4104",
        "insertedAtTimestamp": "22/10/2022 02:42:50.233209"
    },
    {
        "id": "mIbmzqQ473BUF8cngXXs_Q",
        "name": "Joy Love Club",
        "cuisine": "chinese",
        "address": "232 8th Ave, New York, NY 10011",
        "coordinates": {
            "latitude": 40.7444,
            "longitude": -73.99891
        },
        "review_count": 103,
        "rating": 4.5,
        "zip_code": "10011",
        "phone_number": "(917) 388-3198",
        "insertedAtTimestamp": "22/10/2022 02:42:50.233221"
    },
    {
        "id": "62Kedrco374IuZ_OFb0BxA",
        "name": "3 Times",
        "cuisine": "chinese",
        "address": "818 Broadway, New York, NY 10003",
        "coordinates": {
            "latitude": 40.73285,
            "longitude": -73.99104
        },
        "review_count": 214,
        "rating": 4.0,
        "zip_code": "10003",
        "phone_number": "(646) 609-3040",
        "insertedAtTimestamp": "22/10/2022 02:42:50.233232"
    },
    {
        "id": "Aux2Mp7bGnF3S6h60ab3iQ",
        "name": "Yummy City",
        "cuisine": "chinese",
        "address": "1557 Lexington Ave, New York, NY 10029",
        "coordinates": {
            "latitude": 40.7879244458184,
            "longitude": -73.948986355818
        },
        "review_count": 54,
        "rating": 4.5,
        "zip_code": "10029",
        "phone_number": "(212) 427-6808",
        "insertedAtTimestamp": "22/10/2022 02:42:50.233245"
    },
    {
        "id": "sRWRA4dcN_NR1JGpuRVouA",
        "name": "Nan Xiang Xiao Long Bao - Manhattan",
        "cuisine": "chinese",
        "address": "24 W 33rd St, New York, NY 10001",
        "coordinates": {
            "latitude": 40.74822527534694,
            "longitude": -73.9857786
        },
        "review_count": 59,
        "rating": 4.0,
        "zip_code": "10001",
        "phone_number": "(212) 970-3888",
        "insertedAtTimestamp": "22/10/2022 02:42:50.233257"
    },
    {
        "id": "7wrFd9tnIBMClzDnrWdSNw",
        "name": "Chinatown Kitchen",
        "cuisine": "chinese",
        "address": "450 60th St, West New York, NJ 07093",
        "coordinates": {
            "latitude": 40.7885757502878,
            "longitude": -74.0158536518411
        },
        "review_count": 12,
        "rating": 4.5,
        "zip_code": "07093",
        "phone_number": "(201) 868-0630",
        "insertedAtTimestamp": "22/10/2022 02:42:50.233268"
    },
    {
        "id": "Ej-hrhc8HFWfijN4X5akOg",
        "name": "Dim Sum Palace",
        "cuisine": "chinese",
        "address": "33 W 33rd St, New York, NY 10001",
        "coordinates": {
            "latitude": 40.7486498128575,
            "longitude": -73.98684828079797
        },
        "review_count": 195,
        "rating": 4.0,
        "zip_code": "10001",
        "phone_number": "(646) 649-3607",
        "insertedAtTimestamp": "22/10/2022 02:42:50.233279"
    },
    {
        "id": "BbODF2tZuw4xW_RFwMzwRg",
        "name": "Jiangnan Chinese Cuisine",
        "cuisine": "chinese",
        "address": "103 Washington St, Fl 2, New York, NY 10006",
        "coordinates": {
            "latitude": 40.7084231394503,
            "longitude": -74.0140241895666
        },
        "review_count": 62,
        "rating": 3.5,
        "zip_code": "10006",
        "phone_number": "(212) 962-2096",
        "insertedAtTimestamp": "22/10/2022 02:42:50.233291"
    },
    {
        "id": "UaQF4mv6hVjiegkwUvQeMQ",
        "name": "Dim Sum Chelsea",
        "cuisine": "chinese",
        "address": "236 8th Ave, New York, NY 10011",
        "coordinates": {
            "latitude": 40.744624,
            "longitude": -73.998649
        },
        "review_count": 151,
        "rating": 4.5,
        "zip_code": "10011",
        "phone_number": "(212) 645-0100",
        "insertedAtTimestamp": "22/10/2022 02:42:50.233302"
    },
    {
        "id": "qGgQMVExGERqGhZNDM2ROg",
        "name": "Wu Liang Ye",
        "cuisine": "chinese",
        "address": "36 W 48th St, New York, NY 10036",
        "coordinates": {
            "latitude": 40.75781,
            "longitude": -73.97994
        },
        "review_count": 549,
        "rating": 3.5,
        "zip_code": "10036",
        "phone_number": "(212) 398-2308",
        "insertedAtTimestamp": "22/10/2022 02:42:50.233313"
    },
    {
        "id": "slMRh4GEu5Mg53kicgmf4g",
        "name": "Four Four South Village",
        "cuisine": "chinese",
        "address": "368 W 46th St, New York, NY 10036",
        "coordinates": {
            "latitude": 40.76068,
            "longitude": -73.99034
        },
        "review_count": 53,
        "rating": 4.5,
        "zip_code": "10036",
        "phone_number": "None",
        "insertedAtTimestamp": "22/10/2022 02:42:50.233325"
    },
    {
        "id": "7hh2eP4HVkyjtpcqeITk3Q",
        "name": "Ollie's Noodle Shop & Grille",
        "cuisine": "chinese",
        "address": "2705 Broadway, New York, NY 10025",
        "coordinates": {
            "latitude": 40.79942,
            "longitude": -73.96868
        },
        "review_count": 205,
        "rating": 3.0,
        "zip_code": "10025",
        "phone_number": "(212) 932-3300",
        "insertedAtTimestamp": "22/10/2022 02:42:50.233336"
    },
    {
        "id": "GAFqRBlqZpLK2vYbiqzYhA",
        "name": "Peppercorn Station",
        "cuisine": "chinese",
        "address": "66 W 39th St, New York, NY 10018",
        "coordinates": {
            "latitude": 40.75266,
            "longitude": -73.98512
        },
        "review_count": 49,
        "rating": 4.5,
        "zip_code": "10018",
        "phone_number": "(646) 490-5444",
        "insertedAtTimestamp": "22/10/2022 02:42:50.233350"
    },
    {
        "id": "ebug8VzizRlgdK2fYRi-6A",
        "name": "Chai",
        "cuisine": "chinese",
        "address": "353 W 46th St, New York, NY 10036",
        "coordinates": {
            "latitude": 40.7607,
            "longitude": -73.98982
        },
        "review_count": 59,
        "rating": 4.0,
        "zip_code": "10036",
        "phone_number": "(646) 669-8299",
        "insertedAtTimestamp": "22/10/2022 02:42:50.233361"
    },
    {
        "id": "9-vKFnUby_6-pR6UJxjzMw",
        "name": "Sun Hing Lung Co",
        "cuisine": "chinese",
        "address": "58 Henry St, New York, NY 10002",
        "coordinates": {
            "latitude": 40.7127362,
            "longitude": -73.9950764600962
        },
        "review_count": 208,
        "rating": 4.5,
        "zip_code": "10002",
        "phone_number": "(212) 962-7032",
        "insertedAtTimestamp": "22/10/2022 02:42:50.233372"
    },
    {
        "id": "rYw5rQbWRX9buZHZbxqWdA",
        "name": "Congee Village",
        "cuisine": "chinese",
        "address": "100 Allen St, New York, NY 10002",
        "coordinates": {
            "latitude": 40.7187,
            "longitude": -73.99031
        },
        "review_count": 1709,
        "rating": 3.5,
        "zip_code": "10002",
        "phone_number": "(212) 941-1818",
        "insertedAtTimestamp": "22/10/2022 02:42:50.233383"
    },
    {
        "id": "cG9yhk_wkMm7XwR2HcHmrQ",
        "name": "Hidden Leaf",
        "cuisine": "chinese",
        "address": "75 Manhattan West Plaza, One Manhattan West Plaza, New York, NY 10001",
        "coordinates": {
            "latitude": 40.7523775,
            "longitude": -73.99826159999999
        },
        "review_count": 23,
        "rating": 4.5,
        "zip_code": "10001",
        "phone_number": "(917) 905-2782",
        "insertedAtTimestamp": "22/10/2022 02:42:50.233394"
    },
    {
        "id": "ynIx549QFj29o84y1RSGyw",
        "name": "Bao Bao Cafe",
        "cuisine": "chinese",
        "address": "61 Lexington Ave, Unit B, New York, NY 10010",
        "coordinates": {
            "latitude": 40.740829,
            "longitude": -73.983474
        },
        "review_count": 502,
        "rating": 4.0,
        "zip_code": "10010",
        "phone_number": "(917) 388-2479",
        "insertedAtTimestamp": "22/10/2022 02:42:50.233408"
    },
    {
        "id": "inp9N7bo9zqQSa8h8UBhqg",
        "name": "Empire Szechuan",
        "cuisine": "chinese",
        "address": "193 Columbus Ave, New York, NY 10023",
        "coordinates": {
            "latitude": 40.775683,
            "longitude": -73.980178
        },
        "review_count": 268,
        "rating": 2.5,
        "zip_code": "10023",
        "phone_number": "(212) 496-8778",
        "insertedAtTimestamp": "22/10/2022 02:42:50.233418"
    },
    {
        "id": "Dqu-5RxNbbpBsL1Ssht9Ng",
        "name": "Hunan Slurp",
        "cuisine": "chinese",
        "address": "112 1st Ave, New York, NY 10009",
        "coordinates": {
            "latitude": 40.72669,
            "longitude": -73.98563
        },
        "review_count": 248,
        "rating": 4.0,
        "zip_code": "10009",
        "phone_number": "(646) 585-9585",
        "insertedAtTimestamp": "22/10/2022 02:42:50.233428"
    },
    {
        "id": "DmTz35KvxO20mH-pJxLNpg",
        "name": "Xi'an Famous Foods",
        "cuisine": "chinese",
        "address": "96 8th Ave, New York, NY 10011",
        "coordinates": {
            "latitude": 40.740203,
            "longitude": -74.001963
        },
        "review_count": 100,
        "rating": 4.0,
        "zip_code": "10011",
        "phone_number": "(212) 786-2068",
        "insertedAtTimestamp": "22/10/2022 02:42:50.233438"
    },
    {
        "id": "MYPes7EWP5aLiVG1Z_9eFQ",
        "name": "Jing Fong",
        "cuisine": "chinese",
        "address": "380 Amsterdam Ave, New York, NY 10024",
        "coordinates": {
            "latitude": 40.7827096147799,
            "longitude": -73.9789128775797
        },
        "review_count": 273,
        "rating": 3.0,
        "zip_code": "10024",
        "phone_number": "(646) 678-5511",
        "insertedAtTimestamp": "22/10/2022 02:42:50.233450"
    },
    {
        "id": "zC5GU4K-IHc25kXf6DVCBg",
        "name": "Brooklyn Dumpling Shop",
        "cuisine": "chinese",
        "address": "131 First Ave, New York, NY 10003",
        "coordinates": {
            "latitude": 40.727593,
            "longitude": -73.985612
        },
        "review_count": 331,
        "rating": 4.0,
        "zip_code": "10003",
        "phone_number": "None",
        "insertedAtTimestamp": "22/10/2022 02:42:50.233461"
    },
    {
        "id": "HOfNVzn45dwctTOCLVPj2g",
        "name": "So Do Fun",
        "cuisine": "chinese",
        "address": "155 3rd Ave, New York, NY 10003",
        "coordinates": {
            "latitude": 40.73415,
            "longitude": -73.98633
        },
        "review_count": 31,
        "rating": 4.0,
        "zip_code": "10003",
        "phone_number": "(646) 822-3530",
        "insertedAtTimestamp": "22/10/2022 02:42:50.233471"
    },
    {
        "id": "CsRZKzk0ZJjsBi3y0vDaiw",
        "name": "Vanessa's Dumpling House",
        "cuisine": "chinese",
        "address": "1623 2nd Ave, New York, NY 10028",
        "coordinates": {
            "latitude": 40.77686037076055,
            "longitude": -73.95270992070436
        },
        "review_count": 7,
        "rating": 3.0,
        "zip_code": "10028",
        "phone_number": "None",
        "insertedAtTimestamp": "22/10/2022 02:42:50.233481"
    },
    {
        "id": "NdfAypZmyfJk-nJIPaSx_g",
        "name": "Red Feather",
        "cuisine": "chinese",
        "address": "82 W 3rd St, New York, NY 10012",
        "coordinates": {
            "latitude": 40.72975,
            "longitude": -73.99893
        },
        "review_count": 44,
        "rating": 5.0,
        "zip_code": "10012",
        "phone_number": "(646) 360-4433",
        "insertedAtTimestamp": "22/10/2022 02:42:50.233497"
    },
    {
        "id": "ybQV8joopvU1_gG2RwLRog",
        "name": "Wok City",
        "cuisine": "chinese",
        "address": "153 Amsterdam Ave, New York, NY 10023",
        "coordinates": {
            "latitude": 40.7752417820046,
            "longitude": -73.983876645396
        },
        "review_count": 102,
        "rating": 3.0,
        "zip_code": "10023",
        "phone_number": "(212) 496-9714",
        "insertedAtTimestamp": "22/10/2022 02:42:50.233507"
    },
    {
        "id": "cGSLzPA_SCWrN3cyT86Nhw",
        "name": "Dun Huang - Upper West",
        "cuisine": "chinese",
        "address": "1268 Amsterdam Ave, New York, NY 10027",
        "coordinates": {
            "latitude": 40.81106,
            "longitude": -73.95818
        },
        "review_count": 90,
        "rating": 3.5,
        "zip_code": "10027",
        "phone_number": "(646) 476-4549",
        "insertedAtTimestamp": "22/10/2022 02:42:50.233519"
    },
    {
        "id": "3eBV6HwWcdHzJW3sUH-2hw",
        "name": "ICHIRAN - Times Square",
        "cuisine": "chinese",
        "address": "152 W 49th St, New York, NY 10019",
        "coordinates": {
            "latitude": 40.7600737531204,
            "longitude": -73.9833259411037
        },
        "review_count": 668,
        "rating": 4.5,
        "zip_code": "10019",
        "phone_number": "(646) 964-4294",
        "insertedAtTimestamp": "22/10/2022 02:42:50.233531"
    },
    {
        "id": "VW2Epq3C8jqysu6Edpu-RA",
        "name": "Atlas Kitchen",
        "cuisine": "chinese",
        "address": "258 W 109th St, New York, NY 10025",
        "coordinates": {
            "latitude": 40.80332,
            "longitude": -73.9668
        },
        "review_count": 168,
        "rating": 4.0,
        "zip_code": "10025",
        "phone_number": "(646) 928-0522",
        "insertedAtTimestamp": "22/10/2022 02:42:50.233543"
    },
    {
        "id": "JJLFsLZbL21fbYRqcIGCLA",
        "name": "Awesum Dimsum",
        "cuisine": "chinese",
        "address": "612 8th Ave, New York, NY 10018",
        "coordinates": {
            "latitude": 40.7557,
            "longitude": -73.9907
        },
        "review_count": 155,
        "rating": 4.5,
        "zip_code": "10018",
        "phone_number": "(212) 520-8099",
        "insertedAtTimestamp": "22/10/2022 02:42:50.233554"
    },
    {
        "id": "Pr-q47vsmM4aoc2t_Sfk8w",
        "name": "Momofuku Noodle Bar - Uptown",
        "cuisine": "chinese",
        "address": "10 Columbus Cir, Third Floor, New York, NY 10019",
        "coordinates": {
            "latitude": 40.76802583631109,
            "longitude": -73.9829243
        },
        "review_count": 464,
        "rating": 4.0,
        "zip_code": "10019",
        "phone_number": "None",
        "insertedAtTimestamp": "22/10/2022 02:42:50.233565"
    },
    {
        "id": "6dVXDdgzDEVt4DvHzpWo9w",
        "name": "Tang Pavilion",
        "cuisine": "chinese",
        "address": "65 W 55th St, New York, NY 10019",
        "coordinates": {
            "latitude": 40.762849,
            "longitude": -73.977189
        },
        "review_count": 336,
        "rating": 3.5,
        "zip_code": "10019",
        "phone_number": "(212) 956-6888",
        "insertedAtTimestamp": "22/10/2022 02:42:50.233576"
    },
    {
        "id": "uaFHoq-a5XqxF-bsOK9_Qg",
        "name": "Real Kung Fu Little Steamed Buns Ramen",
        "cuisine": "chinese",
        "address": "811 8th Ave, New York, NY 10019",
        "coordinates": {
            "latitude": 40.7616286634162,
            "longitude": -73.98688
        },
        "review_count": 1098,
        "rating": 3.5,
        "zip_code": "10019",
        "phone_number": "(917) 388-2555",
        "insertedAtTimestamp": "22/10/2022 02:42:50.233588"
    },
    {
        "id": "_7GunmWHykEJ5_u2zkX1gg",
        "name": "Dim Sum Sam",
        "cuisine": "chinese",
        "address": "28 E 23rd St, New York, NY 10010",
        "coordinates": {
            "latitude": 40.74057320498368,
            "longitude": -73.98780579999999
        },
        "review_count": 66,
        "rating": 4.0,
        "zip_code": "10010",
        "phone_number": "(646) 669-7876",
        "insertedAtTimestamp": "22/10/2022 02:42:50.233599"
    },
    {
        "id": "mDajKjZjRN4tVGEJFOgF9w",
        "name": "Wok 88",
        "cuisine": "chinese",
        "address": "1570 3rd Ave, New York, NY 10128",
        "coordinates": {
            "latitude": 40.78042,
            "longitude": -73.95322
        },
        "review_count": 324,
        "rating": 3.5,
        "zip_code": "10128",
        "phone_number": "(212) 828-8688",
        "insertedAtTimestamp": "22/10/2022 02:42:50.233610"
    },
    {
        "id": "wyjtGsW5NeVDknGQWnIPAQ",
        "name": "wagamama - midtown",
        "cuisine": "chinese",
        "address": "100 W 55th St, New York, NY 10019",
        "coordinates": {
            "latitude": 40.76316041296893,
            "longitude": -73.97885444091449
        },
        "review_count": 218,
        "rating": 4.0,
        "zip_code": "10019",
        "phone_number": "(332) 900-6111",
        "insertedAtTimestamp": "22/10/2022 02:42:50.233621"
    },
    {
        "id": "smxIke5NSkMIExa6jLVw-g",
        "name": "Joe's Steam Rice Roll",
        "cuisine": "chinese",
        "address": "422 Amsterdam Ave, New York, NY 10024",
        "coordinates": {
            "latitude": 40.78411,
            "longitude": -73.977964
        },
        "review_count": 153,
        "rating": 4.5,
        "zip_code": "10024",
        "phone_number": "(917) 388-3781",
        "insertedAtTimestamp": "22/10/2022 02:42:50.233631"
    },
    {
        "id": "_fTRTishY3G5dLPLYGCVAw",
        "name": "Tipsy Shanghai",
        "cuisine": "chinese",
        "address": "594 3rd Ave, New York, NY 10016",
        "coordinates": {
            "latitude": 40.74879,
            "longitude": -73.9761
        },
        "review_count": 31,
        "rating": 4.0,
        "zip_code": "10016",
        "phone_number": "(212) 466-6488",
        "insertedAtTimestamp": "22/10/2022 02:42:50.233645"
    },
    {
        "id": "JaKLZrh1Y_2qB_0Gc3bk3A",
        "name": "Ollie's Sichuan",
        "cuisine": "chinese",
        "address": "411 W 42nd St, New York, NY 10036",
        "coordinates": {
            "latitude": 40.75884,
            "longitude": -73.99319
        },
        "review_count": 582,
        "rating": 3.5,
        "zip_code": "10036",
        "phone_number": "(212) 868-6588",
        "insertedAtTimestamp": "22/10/2022 02:42:50.233681"
    },
    {
        "id": "l7G5tDA96xbA_bx1ZgkOeg",
        "name": "ICHIRAN Midtown",
        "cuisine": "chinese",
        "address": "132 W 31st St, New York, NY 10001",
        "coordinates": {
            "latitude": 40.74839,
            "longitude": -73.99062
        },
        "review_count": 1136,
        "rating": 4.0,
        "zip_code": "10001",
        "phone_number": "(212) 465-0701",
        "insertedAtTimestamp": "22/10/2022 02:42:50.233696"
    },
    {
        "id": "Jy7htqnnxlKB2vZO42_-aw",
        "name": "Ding Asian Szechuan Hot Pot Restaurant",
        "cuisine": "chinese",
        "address": "234 W 48th St, New York, NY 10036",
        "coordinates": {
            "latitude": 40.76064,
            "longitude": -73.98635
        },
        "review_count": 197,
        "rating": 3.5,
        "zip_code": "10036",
        "phone_number": "(212) 265-0828",
        "insertedAtTimestamp": "22/10/2022 02:42:50.233709"
    },
    {
        "id": "MdDj13LgIs0WdbIdiyqB7Q",
        "name": "Pinch Chinese",
        "cuisine": "chinese",
        "address": "177 Prince St, New York, NY 10012",
        "coordinates": {
            "latitude": 40.72645222833495,
            "longitude": -74.0017973317552
        },
        "review_count": 432,
        "rating": 4.0,
        "zip_code": "10012",
        "phone_number": "(212) 328-7880",
        "insertedAtTimestamp": "22/10/2022 02:42:50.233721"
    },
    {
        "id": "Qgv2vyUV-DwK8YwrhU-jtw",
        "name": "Lan Sheng Restaurant",
        "cuisine": "chinese",
        "address": "128 W 36th St, New York, NY 10018",
        "coordinates": {
            "latitude": 40.7517141867087,
            "longitude": -73.9883603449123
        },
        "review_count": 210,
        "rating": 4.0,
        "zip_code": "10018",
        "phone_number": "(212) 575-8899",
        "insertedAtTimestamp": "22/10/2022 02:42:50.233732"
    },
    {
        "id": "NebgteFykeM1gwiVgPcCHw",
        "name": "The Handpulled Noodle",
        "cuisine": "chinese",
        "address": "3600 Broadway, Ste 3, New York, NY 10031",
        "coordinates": {
            "latitude": 40.828384,
            "longitude": -73.948674
        },
        "review_count": 1087,
        "rating": 4.0,
        "zip_code": "10031",
        "phone_number": "(917) 262-0213",
        "insertedAtTimestamp": "22/10/2022 02:42:50.233743"
    },
    {
        "id": "uiQ6p_3biJD5S4PrF58t_g",
        "name": "Szechuan Gourmet",
        "cuisine": "chinese",
        "address": "21 W 39th St, New York, NY 10018",
        "coordinates": {
            "latitude": 40.75226727202543,
            "longitude": -73.9836107151638
        },
        "review_count": 851,
        "rating": 3.5,
        "zip_code": "10018",
        "phone_number": "(212) 921-0233",
        "insertedAtTimestamp": "22/10/2022 02:42:50.233755"
    },
    {
        "id": "shwaY4v3fx9tjalvHVIBxQ",
        "name": "Tengri Tagh Uyghur Cuisine",
        "cuisine": "chinese",
        "address": "144 W 37th St, New York, NY 10018",
        "coordinates": {
            "latitude": 40.75246221952214,
            "longitude": -73.98871967056284
        },
        "review_count": 71,
        "rating": 4.5,
        "zip_code": "10018",
        "phone_number": "(646) 964-5418",
        "insertedAtTimestamp": "22/10/2022 02:42:50.233766"
    },
    {
        "id": "yVI01P3ApyLlkqtOfgki7A",
        "name": "Bei Jing Chinese Foods",
        "cuisine": "chinese",
        "address": "860 10th Ave, New York, NY 10019",
        "coordinates": {
            "latitude": 40.768619,
            "longitude": -73.98851
        },
        "review_count": 25,
        "rating": 3.5,
        "zip_code": "10019",
        "phone_number": "(212) 262-6162",
        "insertedAtTimestamp": "22/10/2022 02:42:50.233777"
    },
    {
        "id": "O1fUmxt3kbV-rnyjBtzAfw",
        "name": "THEP Thai Restaurant",
        "cuisine": "chinese",
        "address": "1439 2nd Ave, New York, NY 10021",
        "coordinates": {
            "latitude": 40.77078,
            "longitude": -73.95727
        },
        "review_count": 2244,
        "rating": 4.5,
        "zip_code": "10021",
        "phone_number": "(212) 899-9995",
        "insertedAtTimestamp": "22/10/2022 02:42:50.233788"
    },
    {
        "id": "ipPhk_Tmp2JYInPWJR-ZgQ",
        "name": "Dun Huang",
        "cuisine": "chinese",
        "address": "27-23 Jackson Ave, Queens, NY 11101",
        "coordinates": {
            "latitude": 40.748034191355224,
            "longitude": -73.94037311324054
        },
        "review_count": 27,
        "rating": 3.5,
        "zip_code": "11101",
        "phone_number": "None",
        "insertedAtTimestamp": "22/10/2022 02:42:50.233799"
    },
    {
        "id": "LDScBEu3splSQlhGBEH2hg",
        "name": "Bao by Kaya",
        "cuisine": "chinese",
        "address": "570 Lexington Ave, New York, NY 10022",
        "coordinates": {
            "latitude": 40.7569200941962,
            "longitude": -73.9723208919168
        },
        "review_count": 204,
        "rating": 4.0,
        "zip_code": "10022",
        "phone_number": "(929) 421-9987",
        "insertedAtTimestamp": "22/10/2022 02:42:50.233810"
    },
    {
        "id": "KSleHGTG1yL1E7OEFFPoNQ",
        "name": "LaoMa Spicy",
        "cuisine": "chinese",
        "address": "58 E 8th St, New York, NY 10003",
        "coordinates": {
            "latitude": 40.73089,
            "longitude": -73.99343
        },
        "review_count": 226,
        "rating": 4.0,
        "zip_code": "10003",
        "phone_number": "(212) 777-1661",
        "insertedAtTimestamp": "22/10/2022 02:42:50.233825"
    },
    {
        "id": "iSjPBJRiWqrgxW7ZM3CGig",
        "name": "Birds of a Feather",
        "cuisine": "chinese",
        "address": "191 Grand St, Brooklyn, NY 11211",
        "coordinates": {
            "latitude": 40.71442,
            "longitude": -73.960441
        },
        "review_count": 524,
        "rating": 4.0,
        "zip_code": "11211",
        "phone_number": "(718) 969-6800",
        "insertedAtTimestamp": "22/10/2022 02:42:50.233838"
    },
    {
        "id": "L9SuMN3UsGipopWOe3pr9w",
        "name": "Chiko",
        "cuisine": "chinese",
        "address": "954 Manhattan Ave, Brooklyn, NY 11222",
        "coordinates": {
            "latitude": 40.7319,
            "longitude": -73.95422
        },
        "review_count": 49,
        "rating": 4.5,
        "zip_code": "11222",
        "phone_number": "(917) 909-0580",
        "insertedAtTimestamp": "22/10/2022 02:42:50.233849"
    },
    {
        "id": "AeNU0DYNtYDVPGnWAIh-0Q",
        "name": "Wok To Walk",
        "cuisine": "chinese",
        "address": "570 8th Ave, New York, NY 10018",
        "coordinates": {
            "latitude": 40.754724,
            "longitude": -73.991278
        },
        "review_count": 414,
        "rating": 3.5,
        "zip_code": "10018",
        "phone_number": "None",
        "insertedAtTimestamp": "22/10/2022 02:42:50.233860"
    },
    {
        "id": "LXmlfAmrGA3NfvYSfxIVvQ",
        "name": "Ma LaLa",
        "cuisine": "chinese",
        "address": "42-02 30th Ave, Astoria, NY 11103",
        "coordinates": {
            "latitude": 40.7629662660109,
            "longitude": -73.913354203105
        },
        "review_count": 107,
        "rating": 4.0,
        "zip_code": "11103",
        "phone_number": "(718) 606-1898",
        "insertedAtTimestamp": "22/10/2022 02:42:50.233872"
    },
    {
        "id": "NIGYFezOj_F_M5GskaN-2Q",
        "name": "Tipsy Shanghai",
        "cuisine": "chinese",
        "address": "342 7th Ave, New York, NY 10001",
        "coordinates": {
            "latitude": 40.74811,
            "longitude": -73.99306
        },
        "review_count": 20,
        "rating": 3.5,
        "zip_code": "10001",
        "phone_number": "(212) 660-9666",
        "insertedAtTimestamp": "22/10/2022 02:42:50.233884"
    },
    {
        "id": "gDCK63W5_8-tdCCWr92rbw",
        "name": "Shan",
        "cuisine": "chinese",
        "address": "191 Smith St, Brooklyn, NY 11201",
        "coordinates": {
            "latitude": 40.68524,
            "longitude": -73.99133
        },
        "review_count": 43,
        "rating": 4.5,
        "zip_code": "11201",
        "phone_number": "(347) 294-4660",
        "insertedAtTimestamp": "22/10/2022 02:42:50.233896"
    },
    {
        "id": "WVsPyl-DGRu0O_rQYdIMVQ",
        "name": "The Best Sichuan",
        "cuisine": "chinese",
        "address": "47 W 39th St, New York, NY 10018",
        "coordinates": {
            "latitude": 40.75266,
            "longitude": -73.98459
        },
        "review_count": 82,
        "rating": 4.5,
        "zip_code": "10018",
        "phone_number": "(212) 889-0980",
        "insertedAtTimestamp": "22/10/2022 02:42:50.233907"
    },
    {
        "id": "5TnBfeoBpxPPwIXMGBMasg",
        "name": "New Double Dragon",
        "cuisine": "chinese",
        "address": "37 1st Ave, New York, NY 10003",
        "coordinates": {
            "latitude": 40.7242,
            "longitude": -73.98801
        },
        "review_count": 105,
        "rating": 4.0,
        "zip_code": "10003",
        "phone_number": "(212) 598-0730",
        "insertedAtTimestamp": "22/10/2022 02:42:50.233920"
    },
    {
        "id": "Lp8vAE5nHSt5zbu-lSGK8A",
        "name": "Hop Lee Restaurant",
        "cuisine": "chinese",
        "address": "16 Mott St, New York, NY 10013",
        "coordinates": {
            "latitude": 40.71426,
            "longitude": -73.99849
        },
        "review_count": 348,
        "rating": 4.0,
        "zip_code": "10013",
        "phone_number": "(212) 962-6475",
        "insertedAtTimestamp": "22/10/2022 02:42:50.233932"
    },
    {
        "id": "H1jops1lmuhrq9lP7lEGJQ",
        "name": "Flor De Mayo",
        "cuisine": "chinese",
        "address": "484 Amsterdam Ave, New York, NY 10024",
        "coordinates": {
            "latitude": 40.78609,
            "longitude": -73.97658
        },
        "review_count": 1280,
        "rating": 4.0,
        "zip_code": "10024",
        "phone_number": "(212) 787-3388",
        "insertedAtTimestamp": "22/10/2022 02:42:50.233949"
    },
    {
        "id": "IhSVn0TaX8xXb3wcQ-fgcA",
        "name": "Vanessa's Dumpling House",
        "cuisine": "chinese",
        "address": "118A Eldridge St, New York, NY 10002",
        "coordinates": {
            "latitude": 40.71839,
            "longitude": -73.9917399
        },
        "review_count": 2791,
        "rating": 4.0,
        "zip_code": "10002",
        "phone_number": "(212) 625-8008",
        "insertedAtTimestamp": "22/10/2022 02:42:50.233961"
    },
    {
        "id": "97q5nUQTuBo_h00XCxna2A",
        "name": "Tasty Hand-Pulled Noodles",
        "cuisine": "chinese",
        "address": "1 Doyers St, New York, NY 10013",
        "coordinates": {
            "latitude": 40.7142,
            "longitude": -73.99787
        },
        "review_count": 1765,
        "rating": 4.0,
        "zip_code": "10013",
        "phone_number": "(212) 791-1817",
        "insertedAtTimestamp": "22/10/2022 02:42:50.233973"
    },
    {
        "id": "wpJGWi1LQsCd7Leq3Y4RqQ",
        "name": "Chef Tan Newport \u8700\u6e58\u95e8\u7b2c",
        "cuisine": "chinese",
        "address": "558 Washington Blvd, Jersey City, NJ 07310",
        "coordinates": {
            "latitude": 40.7283333339534,
            "longitude": -74.0344276659991
        },
        "review_count": 199,
        "rating": 3.5,
        "zip_code": "07310",
        "phone_number": "(201) 987-7070",
        "insertedAtTimestamp": "22/10/2022 02:42:50.233987"
    },
    {
        "id": "riEXluKIJm3Behd9WA5Y5w",
        "name": "Han Dynasty",
        "cuisine": "chinese",
        "address": "307 W 38th St, Kitchen United, New York, NY 10018",
        "coordinates": {
            "latitude": 40.75505,
            "longitude": -73.99216
        },
        "review_count": 10,
        "rating": 3.0,
        "zip_code": "10018",
        "phone_number": "(646) 370-5170",
        "insertedAtTimestamp": "22/10/2022 02:42:50.234000"
    },
    {
        "id": "PKkCtyZQpVEzivSF41ZgIw",
        "name": "Sunrise Chinese Restaurant",
        "cuisine": "chinese",
        "address": "3320 Broadway, Astoria, NY 11106",
        "coordinates": {
            "latitude": 40.760806,
            "longitude": -73.923281
        },
        "review_count": 61,
        "rating": 3.5,
        "zip_code": "11106",
        "phone_number": "(718) 956-3223",
        "insertedAtTimestamp": "22/10/2022 02:42:50.234012"
    },
    {
        "id": "g512kssHLLTdDbUJHTmJFw",
        "name": "Stick To My Pot Potsticker",
        "cuisine": "chinese",
        "address": "224 W 35th St, New York, NY 10001",
        "coordinates": {
            "latitude": 40.75202,
            "longitude": -73.99121
        },
        "review_count": 230,
        "rating": 4.5,
        "zip_code": "10001",
        "phone_number": "(646) 822-2003",
        "insertedAtTimestamp": "22/10/2022 02:42:50.234034"
    },
    {
        "id": "lgS9lE0Y9FhzT68zCj5QCw",
        "name": "Hunan Bistro",
        "cuisine": "chinese",
        "address": "96 3rd Ave, New York, NY 10003",
        "coordinates": {
            "latitude": 40.73234,
            "longitude": -73.9881
        },
        "review_count": 243,
        "rating": 3.5,
        "zip_code": "10003",
        "phone_number": "(212) 388-9855",
        "insertedAtTimestamp": "22/10/2022 02:42:50.234046"
    },
    {
        "id": "RYoc4EBUNOtgbg7c32OG9A",
        "name": "Atoboy",
        "cuisine": "chinese",
        "address": "43 E 28th St, New York, NY 10016",
        "coordinates": {
            "latitude": 40.74364,
            "longitude": -73.98456
        },
        "review_count": 524,
        "rating": 4.5,
        "zip_code": "10016",
        "phone_number": "(646) 476-7217",
        "insertedAtTimestamp": "22/10/2022 02:42:50.234058"
    },
    {
        "id": "GD-tsn8khDevVa7-KQK3ZQ",
        "name": "3 Times",
        "cuisine": "chinese",
        "address": "483 Grand St, Brooklyn, NY 11211",
        "coordinates": {
            "latitude": 40.71106,
            "longitude": -73.95179
        },
        "review_count": 3,
        "rating": 4.5,
        "zip_code": "11211",
        "phone_number": "None",
        "insertedAtTimestamp": "22/10/2022 02:42:50.234072"
    },
    {
        "id": "Ig5-xwGEXMFssmwIvzxCRQ",
        "name": "Silky Kitchen",
        "cuisine": "chinese",
        "address": "30-02 39th Ave, Long Island City, NY 11101",
        "coordinates": {
            "latitude": 40.7527653,
            "longitude": -73.9333576
        },
        "review_count": 18,
        "rating": 4.5,
        "zip_code": "11101",
        "phone_number": "None",
        "insertedAtTimestamp": "22/10/2022 02:42:50.234086"
    },
    {
        "id": "xLJnT-pB4VECJzmUf1Whpg",
        "name": "3 Times",
        "cuisine": "chinese",
        "address": "90 Clinton St, New York, NY 10002",
        "coordinates": {
            "latitude": 40.718271,
            "longitude": -73.985209
        },
        "review_count": 203,
        "rating": 4.0,
        "zip_code": "10002",
        "phone_number": "(646) 609-6324",
        "insertedAtTimestamp": "22/10/2022 02:42:50.234098"
    },
    {
        "id": "-VRnWGBVMovSS0Ijta_qyg",
        "name": "Dalongyi Hot Pot",
        "cuisine": "chinese",
        "address": "42-22 Crescent St, Long Island City, NY 11101",
        "coordinates": {
            "latitude": 40.750168,
            "longitude": -73.941345
        },
        "review_count": 6,
        "rating": 5.0,
        "zip_code": "11101",
        "phone_number": "(347) 813-4569",
        "insertedAtTimestamp": "22/10/2022 02:42:50.234109"
    },
    {
        "id": "NXg-oNpx0GYNiErdHb8L5A",
        "name": "Awesum Dimsum",
        "cuisine": "chinese",
        "address": "160 E 23rd St, New York, NY 10010",
        "coordinates": {
            "latitude": 40.7388534,
            "longitude": -73.98367370212858
        },
        "review_count": 480,
        "rating": 4.5,
        "zip_code": "10010",
        "phone_number": "(646) 998-3313",
        "insertedAtTimestamp": "22/10/2022 02:42:50.234120"
    },
    {
        "id": "L9N9O2u_M9Daby9_myK4Yg",
        "name": "Mao\u2019s Bao",
        "cuisine": "chinese",
        "address": "4059 High Line, New York, NY 10011",
        "coordinates": {
            "latitude": 40.7480714928872,
            "longitude": -74.004706248683
        },
        "review_count": 20,
        "rating": 3.5,
        "zip_code": "10011",
        "phone_number": "None",
        "insertedAtTimestamp": "22/10/2022 02:42:50.234131"
    },
    {
        "id": "KUW8hx5kinOT_XJj3ttCDQ",
        "name": "Go Noodle Nine Moon",
        "cuisine": "chinese",
        "address": "1069 1st Ave, New York, NY 10022",
        "coordinates": {
            "latitude": 40.75932,
            "longitude": -73.96254
        },
        "review_count": 69,
        "rating": 3.5,
        "zip_code": "10022",
        "phone_number": "(212) 888-6366",
        "insertedAtTimestamp": "22/10/2022 02:42:50.234142"
    },
    {
        "id": "IQ91FltwJmIPhS6fKKf2pw",
        "name": "China 1 Kitchen",
        "cuisine": "chinese",
        "address": "609 Main St, New York, NY 10044",
        "coordinates": {
            "latitude": 40.7632023290684,
            "longitude": -73.9490040654764
        },
        "review_count": 66,
        "rating": 3.0,
        "zip_code": "10044",
        "phone_number": "(212) 588-0806",
        "insertedAtTimestamp": "22/10/2022 02:42:50.234158"
    },
    {
        "id": "wqdFd3DZD_uTXRW784mFkg",
        "name": "A-Pou's Taste",
        "cuisine": "chinese",
        "address": "963 Grand St, Brooklyn, NY 11211",
        "coordinates": {
            "latitude": 40.71326,
            "longitude": -73.93616
        },
        "review_count": 92,
        "rating": 4.5,
        "zip_code": "11211",
        "phone_number": "(718) 388-3038",
        "insertedAtTimestamp": "22/10/2022 02:42:50.234170"
    },
    {
        "id": "oJ6fy4fBv_3WskxH4NfNBg",
        "name": "Chef Huang Jian Bing & Peking Duck",
        "cuisine": "chinese",
        "address": "635 2nd Ave, New York, NY 10016",
        "coordinates": {
            "latitude": 40.74531205210646,
            "longitude": -73.9757772
        },
        "review_count": 2,
        "rating": 5.0,
        "zip_code": "10016",
        "phone_number": "(646) 918-6065",
        "insertedAtTimestamp": "22/10/2022 02:42:50.234183"
    },
    {
        "id": "BCkyeKuJl009EtwPBvVhzA",
        "name": "Silver Apricot",
        "cuisine": "chinese",
        "address": "20 Cornelia St, New York, NY 10014",
        "coordinates": {
            "latitude": 40.73138,
            "longitude": -74.00206
        },
        "review_count": 60,
        "rating": 4.5,
        "zip_code": "10014",
        "phone_number": "(929) 367-8664",
        "insertedAtTimestamp": "22/10/2022 02:42:50.234195"
    },
    {
        "id": "LTVNsNBh_0FI8MYrPfjRDQ",
        "name": "Jiang Nan",
        "cuisine": "chinese",
        "address": "103 Bowery, New York, NY 10002",
        "coordinates": {
            "latitude": 40.7175581,
            "longitude": -73.99498
        },
        "review_count": 36,
        "rating": 4.5,
        "zip_code": "10002",
        "phone_number": "(212) 775-8998",
        "insertedAtTimestamp": "22/10/2022 02:42:50.234208"
    },
    {
        "id": "F2KRHRtnIAZJezs9UC2u6w",
        "name": "Chelsea Golden Wok",
        "cuisine": "chinese",
        "address": "209 8th Ave, New York, NY 10011",
        "coordinates": {
            "latitude": 40.74401,
            "longitude": -73.999824
        },
        "review_count": 70,
        "rating": 3.0,
        "zip_code": "10011",
        "phone_number": "(212) 620-0712",
        "insertedAtTimestamp": "22/10/2022 02:42:50.234219"
    },
    {
        "id": "cuIdT6-gm5csBBMVcLT4zA",
        "name": "Wow Bao",
        "cuisine": "chinese",
        "address": "53-02 11th St, Long Island City, NY 11101",
        "coordinates": {
            "latitude": 40.740221,
            "longitude": -73.952686
        },
        "review_count": 5,
        "rating": 2.0,
        "zip_code": "11101",
        "phone_number": "None",
        "insertedAtTimestamp": "22/10/2022 02:42:50.234234"
    },
    {
        "id": "WIj12zDqIbBucW1hXYhrew",
        "name": "King's Kitchen",
        "cuisine": "chinese",
        "address": "92 E Broadway, New York, NY 10002",
        "coordinates": {
            "latitude": 40.71399,
            "longitude": -73.99367
        },
        "review_count": 297,
        "rating": 4.0,
        "zip_code": "10002",
        "phone_number": "(212) 966-7288",
        "insertedAtTimestamp": "22/10/2022 02:42:50.234247"
    },
    {
        "id": "kjItczuC-FQa-nECT9VF8A",
        "name": "Udon Lab",
        "cuisine": "chinese",
        "address": "43 W 32nd St, New York, NY 10001",
        "coordinates": {
            "latitude": 40.7482036287177,
            "longitude": -73.9874565
        },
        "review_count": 299,
        "rating": 4.0,
        "zip_code": "10001",
        "phone_number": "(646) 838-5338",
        "insertedAtTimestamp": "22/10/2022 02:42:50.234259"
    },
    {
        "id": "WRPJeH3goSpj5ke3Pkrnfw",
        "name": "Burp Bowl Cafe",
        "cuisine": "chinese",
        "address": "134 E 27th St, New York, NY 10010",
        "coordinates": {
            "latitude": 40.74183,
            "longitude": -73.98271
        },
        "review_count": 270,
        "rating": 4.5,
        "zip_code": "10010",
        "phone_number": "(929) 261-6643",
        "insertedAtTimestamp": "22/10/2022 02:42:50.234271"
    },
    {
        "id": "H87c1gVVCKneyI0LxaDFxQ",
        "name": "Corgi Jianbing",
        "cuisine": "chinese",
        "address": "4405 Hunter St, Long Island City, NY 11101",
        "coordinates": {
            "latitude": 40.7474918,
            "longitude": -73.9433018
        },
        "review_count": 29,
        "rating": 5.0,
        "zip_code": "11101",
        "phone_number": "(347) 685-5433",
        "insertedAtTimestamp": "22/10/2022 02:42:50.234294"
    },
    {
        "id": "HScFap2SwbUlfC-QXVkxFA",
        "name": "Xi'an Famous Foods",
        "cuisine": "chinese",
        "address": "37 W 43rd, New York, NY 10036",
        "coordinates": {
            "latitude": 40.755136,
            "longitude": -73.982194
        },
        "review_count": 1682,
        "rating": 4.0,
        "zip_code": "10036",
        "phone_number": "(212) 786-2068",
        "insertedAtTimestamp": "22/10/2022 02:42:50.234307"
    },
    {
        "id": "qVBvZIgDcwSFsENWD1nWKQ",
        "name": "3 Times",
        "cuisine": "chinese",
        "address": "38 Water St, New York, NY 10004",
        "coordinates": {
            "latitude": 40.703438,
            "longitude": -74.010705
        },
        "review_count": 75,
        "rating": 4.0,
        "zip_code": "10004",
        "phone_number": "(646) 895-9297",
        "insertedAtTimestamp": "22/10/2022 02:42:50.234319"
    },
    {
        "id": "EN9_LsFpY44Hkzcnu0jfIg",
        "name": "Dynasty Dim Sum",
        "cuisine": "chinese",
        "address": "381 3rd Ave, New York, NY 10016",
        "coordinates": {
            "latitude": 40.74148,
            "longitude": -73.98087
        },
        "review_count": 194,
        "rating": 4.0,
        "zip_code": "10016",
        "phone_number": "(917) 265-8775",
        "insertedAtTimestamp": "22/10/2022 02:42:50.234334"
    },
    {
        "id": "2UmeXoBQ6zRNn0Zv_VcAjw",
        "name": "JiangNan \u6c5f\u5357\u98df\u5e9c",
        "cuisine": "chinese",
        "address": "133-42 39th Ave, Ste 101, Flushing, NY 11354",
        "coordinates": {
            "latitude": 40.759239,
            "longitude": -73.83256
        },
        "review_count": 270,
        "rating": 4.5,
        "zip_code": "11354",
        "phone_number": "(718) 353-8855",
        "insertedAtTimestamp": "22/10/2022 02:42:50.234346"
    },
    {
        "id": "HPwH6d3yshPeF0pywgDfSw",
        "name": "Jiang Nan",
        "cuisine": "chinese",
        "address": "97 Montgomery St, Jersey City, NJ 07302",
        "coordinates": {
            "latitude": 40.71681948978749,
            "longitude": -74.03873209999999
        },
        "review_count": 46,
        "rating": 4.0,
        "zip_code": "07302",
        "phone_number": "(201) 333-6668",
        "insertedAtTimestamp": "22/10/2022 02:42:50.234357"
    },
    {
        "id": "BkXb82Y2OIsQ5RpNNQOYmQ",
        "name": "China Express",
        "cuisine": "chinese",
        "address": "192 Union Ave, Brooklyn, NY 11211",
        "coordinates": {
            "latitude": 40.70606422212563,
            "longitude": -73.949992
        },
        "review_count": 126,
        "rating": 4.0,
        "zip_code": "11211",
        "phone_number": "(718) 218-7919",
        "insertedAtTimestamp": "22/10/2022 02:42:50.234369"
    },
    {
        "id": "X3T2rK-GrEgVUai-MeXAzg",
        "name": "Thongyib Thai Cart",
        "cuisine": "chinese",
        "address": "405 Park Ave, New York, NY 10022",
        "coordinates": {
            "latitude": 40.7598555582005,
            "longitude": -73.9723258723791
        },
        "review_count": 21,
        "rating": 4.5,
        "zip_code": "10022",
        "phone_number": "(646) 238-2391",
        "insertedAtTimestamp": "22/10/2022 02:42:50.234381"
    },
    {
        "id": "9U5tPyF6QEiVntlyTemxKA",
        "name": "House of Joy",
        "cuisine": "chinese",
        "address": "28 Pell St, New York, NY 10013",
        "coordinates": {
            "latitude": 40.71510354400104,
            "longitude": -73.998459
        },
        "review_count": 156,
        "rating": 4.5,
        "zip_code": "10013",
        "phone_number": "(212) 285-8688",
        "insertedAtTimestamp": "22/10/2022 02:42:50.234393"
    },
    {
        "id": "oJjMYhA6z1_BVaQpSdyl8g",
        "name": "Golden Forest",
        "cuisine": "chinese",
        "address": "353 Grand St, New York, NY 10002",
        "coordinates": {
            "latitude": 40.7167,
            "longitude": -73.98945
        },
        "review_count": 212,
        "rating": 4.0,
        "zip_code": "10002",
        "phone_number": "(212) 505-9513",
        "insertedAtTimestamp": "22/10/2022 02:42:50.234406"
    },
    {
        "id": "I_Va7AZSHpEwX75S-3hHLQ",
        "name": "Noodle Fun",
        "cuisine": "chinese",
        "address": "1744 1st Ave, New York, NY 10128",
        "coordinates": {
            "latitude": 40.7795333862305,
            "longitude": -73.9470367431641
        },
        "review_count": 160,
        "rating": 4.0,
        "zip_code": "10128",
        "phone_number": "(212) 828-3881",
        "insertedAtTimestamp": "22/10/2022 02:42:50.234418"
    },
    {
        "id": "XaEFFUabnbH8ZF7ccmSAlQ",
        "name": "South Of The Clouds",
        "cuisine": "chinese",
        "address": "16 W 8th St, New York, NY 10011",
        "coordinates": {
            "latitude": 40.73264,
            "longitude": -73.99752
        },
        "review_count": 234,
        "rating": 4.0,
        "zip_code": "10011",
        "phone_number": "(212) 888-9653",
        "insertedAtTimestamp": "22/10/2022 02:42:50.234430"
    },
    {
        "id": "gvOe1TLb8hZgx0naC9LYpw",
        "name": "Sei Less",
        "cuisine": "chinese",
        "address": "156 W 38th St, New York, NY 10018",
        "coordinates": {
            "latitude": 40.75314,
            "longitude": -73.98814
        },
        "review_count": 146,
        "rating": 4.0,
        "zip_code": "10018",
        "phone_number": "(212) 586-2675",
        "insertedAtTimestamp": "22/10/2022 02:42:50.234442"
    },
    {
        "id": "8ZF3-QQ5ea8zQTeyZ2pIuQ",
        "name": "Four Four South Village",
        "cuisine": "chinese",
        "address": "11 E 7th St, New York, NY 10003",
        "coordinates": {
            "latitude": 40.728920411124825,
            "longitude": -73.9898209
        },
        "review_count": 77,
        "rating": 4.0,
        "zip_code": "10003",
        "phone_number": "(917) 675-7999",
        "insertedAtTimestamp": "22/10/2022 02:42:50.234454"
    },
    {
        "id": "wB62GwboLqg1UpGm-Qpz5Q",
        "name": "La Salle Dumpling Room West End",
        "cuisine": "chinese",
        "address": "37 West End Ave, New York, NY 10023",
        "coordinates": {
            "latitude": 40.773196,
            "longitude": -73.989616
        },
        "review_count": 1,
        "rating": 5.0,
        "zip_code": "10023",
        "phone_number": "(212) 586-2004",
        "insertedAtTimestamp": "22/10/2022 02:42:50.234466"
    },
    {
        "id": "nzqNfNXjtB6bxp-UN7xXkA",
        "name": "Bao Bao Cafe",
        "cuisine": "chinese",
        "address": "214 W 39th Street Retail 101, New York, NY 10018",
        "coordinates": {
            "latitude": 40.75432,
            "longitude": -73.989333
        },
        "review_count": 72,
        "rating": 4.5,
        "zip_code": "10018",
        "phone_number": "(917) 965-2214",
        "insertedAtTimestamp": "22/10/2022 02:42:50.234479"
    },
    {
        "id": "eQKYZWnBjPUjINAnFmrmbA",
        "name": "P.F. Chang's",
        "cuisine": "chinese",
        "address": "10 Port Imperial Blvd W, Ny, NJ 07093",
        "coordinates": {
            "latitude": 40.7802837,
            "longitude": -74.00958480000001
        },
        "review_count": 547,
        "rating": 3.0,
        "zip_code": "07093",
        "phone_number": "(201) 866-7790",
        "insertedAtTimestamp": "22/10/2022 02:42:50.234495"
    },
    {
        "id": "VbUy299ch56p4GYZTNDbvA",
        "name": "New Wonjo Restaurant",
        "cuisine": "chinese",
        "address": "23 W 32nd St, New York, NY 10001",
        "coordinates": {
            "latitude": 40.74788,
            "longitude": -73.98665
        },
        "review_count": 1445,
        "rating": 3.5,
        "zip_code": "10001",
        "phone_number": "(212) 695-5815",
        "insertedAtTimestamp": "22/10/2022 02:42:50.234507"
    },
    {
        "id": "0d9H27ztGyGHMENp2afAqA",
        "name": "Xi'an Famous Foods",
        "cuisine": "chinese",
        "address": "26-19 Jackson Ave, Long Island City, NY 11101",
        "coordinates": {
            "latitude": 40.7475637,
            "longitude": -73.9417967
        },
        "review_count": 151,
        "rating": 4.0,
        "zip_code": "11101",
        "phone_number": "(212) 786-2068",
        "insertedAtTimestamp": "22/10/2022 02:42:50.234522"
    },
    {
        "id": "LhBZsjkb6aKdLIq9w9_J2w",
        "name": "Hong Kong",
        "cuisine": "chinese",
        "address": "25-10 Broadway, Astoria, NY 11106",
        "coordinates": {
            "latitude": 40.76302,
            "longitude": -73.92822
        },
        "review_count": 65,
        "rating": 3.0,
        "zip_code": "11106",
        "phone_number": "(718) 726-8482",
        "insertedAtTimestamp": "22/10/2022 02:42:50.234535"
    },
    {
        "id": "Bb0h5Rs8ugSM2CjulRhfBw",
        "name": "Spicy Moon East Village",
        "cuisine": "chinese",
        "address": "328 E 6th St, New York, NY 10003",
        "coordinates": {
            "latitude": 40.72674,
            "longitude": -73.98722
        },
        "review_count": 572,
        "rating": 4.5,
        "zip_code": "10003",
        "phone_number": "(646) 429-8471",
        "insertedAtTimestamp": "22/10/2022 02:42:50.234547"
    },
    {
        "id": "--SoNTeCXFUx56no0OgibQ",
        "name": "Bites of Xi'an",
        "cuisine": "chinese",
        "address": "84 E 10th St, New York, NY 10003",
        "coordinates": {
            "latitude": 40.730861,
            "longitude": -73.989941
        },
        "review_count": 64,
        "rating": 4.5,
        "zip_code": "10003",
        "phone_number": "(917) 409-5535",
        "insertedAtTimestamp": "22/10/2022 02:42:50.234559"
    },
    {
        "id": "bacGm8cL-vUPHdR18_M7bw",
        "name": "Charley Mom Restaurant",
        "cuisine": "chinese",
        "address": "1580 York Ave, New York, NY 10028",
        "coordinates": {
            "latitude": 40.7740287780762,
            "longitude": -73.9481582641602
        },
        "review_count": 99,
        "rating": 3.5,
        "zip_code": "10028",
        "phone_number": "(212) 439-6363",
        "insertedAtTimestamp": "22/10/2022 02:42:50.234572"
    },
    {
        "id": "ItZ8CzZAGXGjB8_9HxDIXg",
        "name": "Grand Sichuan Eastern",
        "cuisine": "chinese",
        "address": "172 8th Ave, New York, NY 10011",
        "coordinates": {
            "latitude": 40.74256,
            "longitude": -74.00026
        },
        "review_count": 137,
        "rating": 3.0,
        "zip_code": "10011",
        "phone_number": "(212) 243-1688",
        "insertedAtTimestamp": "22/10/2022 02:42:50.234585"
    },
    {
        "id": "85wkGMKbHV0RdTGIWpep5A",
        "name": "Zen Pot",
        "cuisine": "chinese",
        "address": "242 W 56th St, New York, NY 10019",
        "coordinates": {
            "latitude": 40.765612,
            "longitude": -73.982937
        },
        "review_count": 15,
        "rating": 4.5,
        "zip_code": "10019",
        "phone_number": "(917) 336-1732",
        "insertedAtTimestamp": "22/10/2022 02:42:50.234597"
    },
    {
        "id": "SyvC0s3y0ZrtnLbwnvw7tw",
        "name": "Tim Ho Wan",
        "cuisine": "chinese",
        "address": "85 4th Ave, New York, NY 10003",
        "coordinates": {
            "latitude": 40.731338,
            "longitude": -73.990145
        },
        "review_count": 1828,
        "rating": 3.5,
        "zip_code": "10003",
        "phone_number": "(212) 228-2800",
        "insertedAtTimestamp": "22/10/2022 02:42:50.234609"
    },
    {
        "id": "bDsXyYwzk4I9_7l51D_gaA",
        "name": "Cafe Evergreen",
        "cuisine": "chinese",
        "address": "1367 1st Ave, New York, NY 10021",
        "coordinates": {
            "latitude": 40.76891,
            "longitude": -73.9556
        },
        "review_count": 211,
        "rating": 3.5,
        "zip_code": "10021",
        "phone_number": "(212) 744-3266",
        "insertedAtTimestamp": "22/10/2022 02:42:50.234621"
    },
    {
        "id": "qEe7nIhPfEL6L0-VYhWRrA",
        "name": "Raku",
        "cuisine": "chinese",
        "address": "48 Macdougal St, New York, NY 10012",
        "coordinates": {
            "latitude": 40.72728,
            "longitude": -74.00252
        },
        "review_count": 743,
        "rating": 4.5,
        "zip_code": "10012",
        "phone_number": "(212) 989-4797",
        "insertedAtTimestamp": "22/10/2022 02:42:50.234635"
    },
    {
        "id": "3DmJv5rHFNyQykaUiXBOvA",
        "name": "Hop Lee Kitchen",
        "cuisine": "chinese",
        "address": "992 Manhattan Ave, Brooklyn, NY 11222",
        "coordinates": {
            "latitude": 40.7329099,
            "longitude": -73.95455
        },
        "review_count": 46,
        "rating": 3.5,
        "zip_code": "11222",
        "phone_number": "(718) 971-1897",
        "insertedAtTimestamp": "22/10/2022 02:42:50.234647"
    },
    {
        "id": "fa5a7jksUak7yleWLWMigg",
        "name": "Joe\u2019s Steam Rice Roll",
        "cuisine": "chinese",
        "address": "261 Canal St, New York, NY 10013",
        "coordinates": {
            "latitude": 40.7190194496717,
            "longitude": -74.0008207038045
        },
        "review_count": 431,
        "rating": 4.0,
        "zip_code": "10013",
        "phone_number": "(718) 878-0828",
        "insertedAtTimestamp": "22/10/2022 02:42:50.234674"
    },
    {
        "id": "GJZnf3B-ADjlCV1NXsHvGQ",
        "name": "Tang's Garden",
        "cuisine": "chinese",
        "address": "1328 3rd Ave, New York, NY 10021",
        "coordinates": {
            "latitude": 40.7722574,
            "longitude": -73.9589547
        },
        "review_count": 103,
        "rating": 3.0,
        "zip_code": "10021",
        "phone_number": "(212) 249-2102",
        "insertedAtTimestamp": "22/10/2022 02:42:50.234690"
    },
    {
        "id": "56wxE888GknVcUeAXBfqFw",
        "name": "Shanghai Lee",
        "cuisine": "chinese",
        "address": "157 Franklin St, Brooklyn, NY 11222",
        "coordinates": {
            "latitude": 40.7318,
            "longitude": -73.9582099
        },
        "review_count": 137,
        "rating": 3.0,
        "zip_code": "11222",
        "phone_number": "(718) 349-6716",
        "insertedAtTimestamp": "22/10/2022 02:42:50.234702"
    },
    {
        "id": "HoU-pi4U4EK-AwkTxNCAEg",
        "name": "Lisa's Dumplings",
        "cuisine": "chinese",
        "address": "57th St & 8th Ave, New York, NY 10019",
        "coordinates": {
            "latitude": 40.7689469190942,
            "longitude": -73.9824067136363
        },
        "review_count": 100,
        "rating": 4.0,
        "zip_code": "10019",
        "phone_number": "None",
        "insertedAtTimestamp": "22/10/2022 02:42:50.234888"
    },
    {
        "id": "nBm-zxAWg_oA8JNtHxPvcw",
        "name": "Di Di Dumpling",
        "cuisine": "chinese",
        "address": "38 Lexington Ave, New York, NY 10010",
        "coordinates": {
            "latitude": 40.74017,
            "longitude": -73.98452
        },
        "review_count": 228,
        "rating": 3.5,
        "zip_code": "10010",
        "phone_number": "(212) 466-6618",
        "insertedAtTimestamp": "22/10/2022 02:42:50.234908"
    },
    {
        "id": "KHdYPT0jUnUGdHGaY73mxg",
        "name": "Sukhumvit 51",
        "cuisine": "chinese",
        "address": "224 E 51st St, New York, NY 10022",
        "coordinates": {
            "latitude": 40.7559139831703,
            "longitude": -73.9693867939228
        },
        "review_count": 810,
        "rating": 4.0,
        "zip_code": "10022",
        "phone_number": "(212) 888-8894",
        "insertedAtTimestamp": "22/10/2022 02:42:50.234924"
    },
    {
        "id": "B3_K2kUVbYOU0VaLcj_LTw",
        "name": "Thai Villa",
        "cuisine": "chinese",
        "address": "5 E 19th St, G Floor, New York, NY 10003",
        "coordinates": {
            "latitude": 40.73902,
            "longitude": -73.99065
        },
        "review_count": 4341,
        "rating": 4.5,
        "zip_code": "10003",
        "phone_number": "(212) 802-9999",
        "insertedAtTimestamp": "22/10/2022 02:42:50.234936"
    },
    {
        "id": "FK5RnNOUxxIImPVcAHGM4w",
        "name": "Great Wall Chinese Restaurant",
        "cuisine": "chinese",
        "address": "4100 Park Ave, Weehawken, NJ 07086",
        "coordinates": {
            "latitude": 40.7737819079407,
            "longitude": -74.0202113841939
        },
        "review_count": 26,
        "rating": 3.5,
        "zip_code": "07086",
        "phone_number": "(201) 864-8614",
        "insertedAtTimestamp": "22/10/2022 02:42:50.234957"
    },
    {
        "id": "zYoL-o9YJpGTwJ-Gmj8AFA",
        "name": "Jue Lan Club",
        "cuisine": "chinese",
        "address": "49 W 20th St, New York, NY 10011",
        "coordinates": {
            "latitude": 40.7409694,
            "longitude": -73.9934031
        },
        "review_count": 702,
        "rating": 3.5,
        "zip_code": "10011",
        "phone_number": "(646) 524-7409",
        "insertedAtTimestamp": "22/10/2022 02:42:50.234970"
    },
    {
        "id": "r6r-XK_wL02FQdAgaauTxg",
        "name": "Kame",
        "cuisine": "chinese",
        "address": "330 8th Ave, New York, NY 10001",
        "coordinates": {
            "latitude": 40.7474881059799,
            "longitude": -73.996648862958
        },
        "review_count": 642,
        "rating": 4.5,
        "zip_code": "10001",
        "phone_number": "(917) 391-8587",
        "insertedAtTimestamp": "22/10/2022 02:42:50.234982"
    },
    {
        "id": "9HD5HQiTkURkx5i7hL92EA",
        "name": "Spicy Moon West Village",
        "cuisine": "chinese",
        "address": "68 W 3rd St, New York, NY 10012",
        "coordinates": {
            "latitude": 40.729318,
            "longitude": -73.99832
        },
        "review_count": 277,
        "rating": 4.5,
        "zip_code": "10012",
        "phone_number": "(646) 590-1390",
        "insertedAtTimestamp": "22/10/2022 02:42:50.234994"
    },
    {
        "id": "zdB4nA0Xpyxhi5oIt6wVng",
        "name": "JoJu",
        "cuisine": "chinese",
        "address": "555 5th Ave, 46th St. Entrance, Between 5th & Madison Ave, New York, NY 10017",
        "coordinates": {
            "latitude": 40.7558,
            "longitude": -73.97874
        },
        "review_count": 233,
        "rating": 4.5,
        "zip_code": "10017",
        "phone_number": "(332) 204-2278",
        "insertedAtTimestamp": "22/10/2022 02:42:50.235007"
    },
    {
        "id": "1YGpTYD8xIuUpK_beMhzSw",
        "name": "The Rice Noodle",
        "cuisine": "chinese",
        "address": "190 Bleecker St, New York, NY 10012",
        "coordinates": {
            "latitude": 40.729087,
            "longitude": -74.001525
        },
        "review_count": 143,
        "rating": 4.0,
        "zip_code": "10012",
        "phone_number": "(646) 895-9908",
        "insertedAtTimestamp": "22/10/2022 02:42:50.235033"
    },
    {
        "id": "SaZZ363k55_E61DgDJX6BA",
        "name": "Terry and Yaki",
        "cuisine": "chinese",
        "address": "215 E 68th St, New York, NY 10065",
        "coordinates": {
            "latitude": 40.7673294649148,
            "longitude": -73.9630373941956
        },
        "review_count": 9,
        "rating": 4.5,
        "zip_code": "10065",
        "phone_number": "None",
        "insertedAtTimestamp": "22/10/2022 02:42:50.235056"
    },
    {
        "id": "0eLtFI6MeEYM2rlMtcjRaQ",
        "name": "IZAKAYA E.A.K. Hell's Kitchen",
        "cuisine": "chinese",
        "address": "360 W 46th St, New York, NY 10036",
        "coordinates": {
            "latitude": 40.76054,
            "longitude": -73.99018342883555
        },
        "review_count": 215,
        "rating": 4.0,
        "zip_code": "10036",
        "phone_number": "(646) 850-8032",
        "insertedAtTimestamp": "22/10/2022 02:42:50.235069"
    },
    {
        "id": "Va_mnsEvBghHXvc7uZIWJQ",
        "name": "Spice Symphony",
        "cuisine": "chinese",
        "address": "182 Lexington Ave, New York, NY 10016",
        "coordinates": {
            "latitude": 40.744722,
            "longitude": -73.981202
        },
        "review_count": 653,
        "rating": 4.0,
        "zip_code": "10016",
        "phone_number": "(212) 545-7742",
        "insertedAtTimestamp": "22/10/2022 02:42:50.235081"
    },
    {
        "id": "E1HXa-a-j7LCDMXb3QLBHQ",
        "name": "Mr Z Dim  Sum",
        "cuisine": "chinese",
        "address": "313 6th Ave, New York, NY 10014",
        "coordinates": {
            "latitude": 40.731,
            "longitude": -74.00198
        },
        "review_count": 14,
        "rating": 4.5,
        "zip_code": "10014",
        "phone_number": "(212) 380-8887",
        "insertedAtTimestamp": "22/10/2022 02:42:50.235094"
    },
    {
        "id": "a93NwZxjkPQydJxR42oPyg",
        "name": "Grain House",
        "cuisine": "chinese",
        "address": "929 Amsterdam Ave, New York, NY 10025",
        "coordinates": {
            "latitude": 40.800127673827,
            "longitude": -73.9657538384199
        },
        "review_count": 124,
        "rating": 3.5,
        "zip_code": "10025",
        "phone_number": "(212) 531-1130",
        "insertedAtTimestamp": "22/10/2022 02:42:50.235106"
    },
    {
        "id": "pb_cHcy8D8UC-jQ-Q524ug",
        "name": "Som Bo",
        "cuisine": "chinese",
        "address": "143 8th Ave, New York, NY 10011",
        "coordinates": {
            "latitude": 40.74192,
            "longitude": -74.00136
        },